City_ID,City,Lat,Lng,Max Temp,Humidity,Cloudiness,Wind Speed,Country,Date
0,poum,-20.2333,164.0167,298.67,77,68,9.19,NC,1682334078
1,bengkulu,-3.8004,102.2655,300.31,86,100,1.93,ID,1682333924
2,kutum,14.2,24.6667,307.88,17,6,5.25,SD,1682333580
3,qaanaaq,77.484,-69.3632,263.16,77,97,2.98,GL,1682334079
4,bredasdorp,-34.5322,20.0403,296.93,52,86,7.7,ZA,1682334079
5,cape town,-33.9258,18.4232,293.21,89,88,3.74,ZA,1682334013
6,rikitea,-23.1203,-134.9692,299.47,88,100,7.13,PF,1682334080
7,ardakan,32.31,54.0175,302.86,17,93,1.0,IR,1682334080
8,albany,42.6001,-73.9662,278.51,87,99,2.04,US,1682334080
9,port elizabeth,-33.918,25.5701,298.76,77,100,1.79,ZA,1682334081
10,pemangkat,1.1667,108.9667,299.81,86,98,2.0,ID,1682334081
11,jardim de piranhas,-6.3786,-37.3519,300.28,63,76,6.16,BR,1682334082
12,izumo,35.3667,132.7667,286.09,41,0,8.75,JP,1682333614
13,goderich,43.7501,-81.7165,276.43,86,100,3.82,CA,1682334082
14,vaini,-21.2,-175.2,297.89,75,12,2.84,TO,1682334082
15,turukhansk,65.8167,87.9833,276.49,89,100,8.53,RU,1682334082
16,khatanga,71.9667,102.5,269.72,90,8,3.84,RU,1682334083
17,punta arenas,-53.15,-70.9167,278.21,93,100,1.51,CL,1682334083
18,kapaa,22.0752,-159.319,295.14,82,66,0.9,US,1682334083
19,san patricio,28.017,-97.5169,289.73,80,100,3.56,US,1682334084
20,kieta,-6.2167,155.6333,299.7,85,100,1.11,PG,1682334084
21,hermanus,-34.4187,19.2345,295.26,73,65,8.6,ZA,1682334084
22,hobart,-42.8794,147.3294,285.52,87,20,2.57,AU,1682333956
23,lavrentiya,65.5833,-171.0,258.7,86,4,3.76,RU,1682334085
24,sechura,-5.5569,-80.8222,298.87,75,100,2.91,PE,1682334086
25,timizart,36.8,4.2667,297.32,36,16,2.69,DZ,1682334086
26,castro,-24.7911,-50.0119,286.77,89,97,3.01,BR,1682334086
27,ushuaia,-54.8,-68.3,275.46,93,99,1.7,AR,1682334087
28,doctor cecilio baez,-25.05,-56.3167,292.43,91,1,1.82,PY,1682334087
29,touros,-5.1989,-35.4608,300.27,77,99,5.86,BR,1682334088
30,barrow,71.2906,-156.7887,256.16,85,100,4.12,US,1682334088
31,lata,40.1629,-8.3327,293.19,55,76,1.87,PT,1682334088
32,busselton,-33.65,115.3333,285.26,78,79,3.08,AU,1682334030
33,ridgecrest,35.6225,-117.6709,291.49,43,7,3.13,US,1682334089
34,pisco,-13.7,-76.2167,293.72,86,14,0.64,PE,1682334089
35,madimba,-10.4,40.3333,301.92,76,28,4.72,TZ,1682334089
36,millinocket,45.6573,-68.7098,279.21,87,100,3.6,US,1682334090
37,chkalovskoye,44.8392,133.0436,279.7,30,29,3.08,RU,1682334090
38,constitucion,-35.3333,-72.4167,284.29,88,20,1.28,CL,1682334090
39,chumikan,54.7183,135.315,272.97,65,93,5.48,RU,1682334090
40,clyde river,70.4692,-68.5914,263.28,100,100,3.09,CA,1682333507
41,flinders,-34.5833,150.8552,292.25,85,97,0.89,AU,1682334091
42,faanui,-16.4833,-151.75,300.17,79,51,3.7,PF,1682334091
43,teacapan,22.55,-105.75,291.43,71,85,1.79,MX,1682334091
44,huejuquilla el alto,22.6,-103.8667,282.31,52,94,0.65,MX,1682334092
45,fort nelson,58.8053,-122.7002,274.26,94,100,1.65,CA,1682334092
46,mataura,-46.1927,168.8643,284.53,86,47,1.91,NZ,1682334092
47,hilo,19.7297,-155.09,296.08,95,98,2.47,US,1682334092
48,alcoy,38.7054,-0.4743,294.66,27,75,2.04,ES,1682334093
49,svetlaya,46.5389,138.3297,277.73,46,47,3.57,RU,1682334093
50,vila,42.0304,-8.1588,285.76,96,100,2.68,PT,1682334093
51,ahipara,-35.1667,173.1667,289.18,56,34,6.45,NZ,1682334094
52,port lincoln,-34.7333,135.8667,292.12,74,1,2.76,AU,1682334094
53,namibe,-15.1961,12.1522,301.36,56,6,4.65,AO,1682334094
54,atuona,-9.8,-139.0333,300.43,77,13,5.44,PF,1682334095
55,codrington,-38.2667,141.9667,288.11,68,0,1.72,AU,1682334095
56,ulundi,-28.3352,31.4162,301.58,34,100,2.98,ZA,1682334096
57,talnakh,69.4865,88.3972,275.49,88,22,2.88,RU,1682334096
58,havre-saint-pierre,50.2334,-63.5986,275.35,87,100,4.63,CA,1682334096
59,zabid,14.1951,43.3152,309.47,37,10,6.54,YE,1682334097
60,marsa matruh,31.3525,27.2453,294.0,57,40,4.85,EG,1682334097
61,chuy,-33.6971,-53.4616,291.34,91,54,2.37,UY,1682334097
62,turayf,31.6725,38.6637,298.55,17,29,8.44,SA,1682334097
63,konakovo,56.7,36.7667,292.19,33,81,3.39,RU,1682334098
64,dikson,73.5069,80.5464,273.63,82,61,6.26,RU,1682334098
65,butaritari,3.0707,172.7902,301.62,79,97,7.81,KI,1682334099
66,lebu,-37.6167,-73.65,283.54,88,8,2.39,CL,1682334099
67,yellowknife,62.456,-114.3525,272.44,86,40,3.6,CA,1682333633
68,shahr-e kord,32.3256,50.8644,294.75,21,39,2.06,IR,1682334100
69,zhigansk,66.7697,123.3711,269.9,85,92,6.31,RU,1682333548
70,san carlos de bariloche,-41.1456,-71.3082,278.4,58,1,1.66,AR,1682334002
71,katsuura,35.1333,140.3,285.58,58,100,3.73,JP,1682334012
72,sao filipe,14.8961,-24.4956,297.05,67,1,4.02,CV,1682334101
73,kanchanaburi,14.6333,99.1,304.88,49,47,0.94,TH,1682334101
74,pasighat,28.0667,95.3333,301.03,54,34,0.41,IN,1682333825
75,tiksi,71.6872,128.8694,266.84,96,90,3.31,RU,1682334102
76,carnarvon,-24.8667,113.6333,294.35,72,60,8.25,AU,1682334005
77,opuwo,-18.0607,13.84,303.63,33,1,1.37,NA,1682334014
78,mount isa,-20.7333,139.5,294.02,56,2,2.06,AU,1682334004
79,avera,33.194,-82.5271,286.18,60,100,3.07,US,1682333520
80,mechetinskaya,46.7713,40.456,285.84,80,98,4.34,RU,1682334103
81,bluff,-46.6,168.3333,284.71,71,86,13.43,NZ,1682334104
82,sai buri,6.7013,101.6168,302.43,70,24,4.42,TH,1682334104
83,portland,45.5234,-122.6762,282.29,91,100,4.47,US,1682333928
84,hasaki,35.7333,140.8333,286.05,52,100,4.03,JP,1682334105
85,ayni,39.3941,68.5377,291.72,44,91,1.98,TJ,1682334105
86,tura,25.5198,90.2201,302.93,35,44,2.64,IN,1682333971
87,avarua,-21.2078,-159.775,296.18,83,75,2.57,CK,1682334105
88,cururupu,-1.8283,-44.8683,299.38,87,100,1.12,BR,1682334106
89,severo-kurilsk,50.6789,156.125,272.92,85,97,8.7,RU,1682334106
90,champerico,14.3,-91.9167,300.16,73,8,2.71,GT,1682334106
91,evensk,61.95,159.2333,272.56,89,99,13.18,RU,1682334106
92,sorong,-0.8833,131.25,301.02,79,80,3.23,ID,1682334107
93,klembivka,48.3904,28.4109,291.26,49,65,6.31,UA,1682334107
94,arauca,7.0847,-70.7591,296.15,100,100,0.51,CO,1682334107
95,saint-francois,46.4154,3.9054,284.84,60,100,3.6,FR,1682333528
96,ponta delgada,37.7333,-25.6667,290.55,94,75,8.23,PT,1682334108
97,new norfolk,-42.7826,147.0587,285.32,64,19,1.5,AU,1682334108
98,muisne,0.6,-80.0333,297.5,90,97,1.95,EC,1682334108
99,la ronge,55.1001,-105.2842,273.29,37,20,3.09,CA,1682333530
100,saskylakh,71.9167,114.0833,262.63,96,70,2.4,RU,1682334108
101,stepnyak,52.8339,70.7803,287.15,30,43,9.61,KZ,1682334109
102,fairbanks,64.8378,-147.7164,263.34,57,75,7.72,US,1682333538
103,kanniyakumari,8.0833,77.5667,303.15,70,62,1.44,IN,1682334110
104,machacamarca,-18.1667,-67.0333,277.1,37,0,1.83,BO,1682334110
105,pindiga,9.9833,10.9333,307.22,36,100,5.05,NG,1682334110
106,broome,42.2506,-75.833,275.49,97,41,0.89,US,1682334111
107,keetmanshoop,-26.5833,18.1333,298.25,35,91,7.43,NA,1682334015
108,jamestown,42.097,-79.2353,276.49,94,100,3.58,US,1682334111
109,kaura namoda,12.5898,6.5779,309.35,29,95,5.56,NG,1682334112
110,mar del plata,-38.0023,-57.5575,287.56,98,2,2.37,AR,1682334112
111,komsomolskiy,40.4272,71.7189,301.55,17,88,5.14,UZ,1682333535
112,quatre cocos,-20.2078,57.7625,301.53,76,70,4.72,MU,1682334112
113,provideniya,64.3833,-173.3,261.38,79,2,5.23,RU,1682334113
114,tokmak,47.2514,35.7058,290.91,49,94,3.33,UA,1682334113
115,okhotsk,59.3833,143.3,271.81,82,97,1.58,RU,1682333654
116,dali,25.7,100.1833,295.19,30,43,5.04,CN,1682334114
117,den helder,52.9599,4.7593,282.6,82,100,11.62,NL,1682334114
118,diego de almagro,-26.3667,-70.05,284.73,72,0,0.48,CL,1682333639
119,bathsheba,13.2167,-59.5167,299.24,81,79,3.13,BB,1682334114
120,ponta do sol,32.6667,-17.1,296.32,68,91,0.44,PT,1682334115
121,georgetown,5.4112,100.3354,304.12,74,20,4.63,MY,1682333923
122,tuktoyaktuk,69.4541,-133.0374,248.14,100,99,0.55,CA,1682334116
123,tasiilaq,65.6145,-37.6368,273.24,85,96,2.74,GL,1682334116
124,wewak,-3.5534,143.6268,300.47,82,100,2.21,PG,1682334116
125,nelson bay,-32.7167,152.15,293.71,80,21,5.81,AU,1682334117
126,verkhnyaya inta,65.9811,60.3094,272.53,72,87,7.61,RU,1682334117
127,atmakur,15.8833,78.5833,310.48,21,26,4.08,IN,1682334093
128,general roca,-39.0333,-67.5833,286.27,64,0,3.84,AR,1682333628
129,haines junction,60.7522,-137.5108,268.6,94,100,2.15,CA,1682334118
130,east london,-33.0153,27.9116,301.67,47,0,1.54,ZA,1682334000
131,kavieng,-2.5744,150.7967,301.16,79,43,4.6,PG,1682334118
132,workington,54.6425,-3.5441,280.93,65,100,1.34,GB,1682334119
133,thompson,55.7435,-97.8558,255.38,100,85,1.33,CA,1682334119
134,saint-philippe,-21.3585,55.7679,302.92,73,17,3.43,RE,1682334120
135,sosva,59.1766,61.8558,282.56,34,99,3.42,RU,1682333533
136,kudahuvadhoo,2.6708,72.8944,302.54,72,100,3.63,MV,1682334120
137,airai,-8.9266,125.4092,289.2,96,82,1.52,TL,1682334120
138,yining,29.0361,114.5636,284.57,95,100,0.66,CN,1682334121
139,revda,56.801,59.9303,286.49,60,100,4.83,RU,1682334080
140,norman wells,65.282,-126.8329,259.62,97,100,1.34,CA,1682334121
141,hammerfest,70.6634,23.6821,273.4,69,40,0.0,NO,1682334122
142,meulaboh,4.1363,96.1285,300.71,83,79,2.23,ID,1682334123
143,inirida,3.8653,-67.9239,295.73,99,100,1.92,CO,1682334124
144,katobu,-4.9408,122.5276,298.24,92,90,2.3,ID,1682333547
145,sabha,27.0377,14.4283,303.15,19,46,4.89,LY,1682334124
146,saint-augustin,51.226,-58.6502,275.3,75,51,3.82,CA,1682334124
147,petropavlovsk-kamchatskiy,53.0452,158.6483,273.48,64,75,2.0,RU,1682333916
148,chokurdakh,70.6333,147.9167,260.1,96,9,4.14,RU,1682334125
149,malpe,13.35,74.7167,304.08,54,88,5.43,IN,1682334125
150,ulladulla,-35.35,150.4667,289.69,86,54,3.34,AU,1682333856
151,ribeira grande,38.5167,-28.7,290.8,94,20,5.81,PT,1682334126
152,shuangcheng,45.35,126.2833,284.47,14,100,3.5,CN,1682334127
153,huarmey,-10.0681,-78.1522,297.05,84,35,4.44,PE,1682334127
154,kaitangata,-46.2817,169.8464,282.55,77,73,5.67,NZ,1682334127
155,acarau,-2.8856,-40.12,299.15,82,93,4.23,BR,1682334128
156,machiques,10.0644,-72.545,296.03,81,61,1.19,VE,1682334128
157,port alfred,-33.5906,26.891,298.81,70,100,1.34,ZA,1682334128
158,barsovo,61.1667,73.1667,274.22,65,22,8.42,RU,1682334128
159,sept-iles,50.2001,-66.3821,275.96,90,20,4.12,CA,1682333568
160,laguna,38.421,-121.4238,288.03,80,0,1.54,US,1682333545
161,bata,1.8639,9.7658,302.04,75,99,3.41,GQ,1682334130
162,kaeo,-35.1,173.7833,286.66,87,31,3.88,NZ,1682334131
163,kisangani,0.5167,25.2,297.24,79,100,1.57,CD,1682334131
164,josanicka banja,43.3895,20.7503,289.76,65,89,1.82,RS,1682334131
165,ancud,-41.8697,-73.8203,280.83,87,2,1.96,CL,1682333561
166,klaksvik,62.2266,-6.589,275.66,61,100,10.17,FO,1682334132
167,gizo,-8.103,156.8419,301.62,74,95,2.15,SB,1682334132
168,abashiri,44.0213,144.2697,278.12,78,97,4.55,JP,1682334004
169,half moon bay,37.4636,-122.4286,284.18,85,20,9.77,US,1682334133
170,alcaniz,41.05,-0.1333,295.1,40,53,5.84,ES,1682334133
171,hithadhoo,-0.6,73.0833,302.62,70,100,3.16,MV,1682334133
172,harper,4.375,-7.7169,302.97,69,100,3.11,LR,1682334134
173,isangel,-19.55,169.2667,298.26,79,52,3.18,VU,1682333592
174,jackson,42.4165,-122.8345,281.7,71,64,1.34,US,1682334134
175,bentiu,9.2333,29.8333,309.84,28,60,3.31,SS,1682334134
176,matay,28.419,30.7792,306.4,13,0,7.13,EG,1682334134
177,sundumbili,-29.1337,31.3975,302.54,42,98,4.76,ZA,1682334135
178,cidreira,-30.1811,-50.2056,294.06,83,26,6.8,BR,1682334135
179,buncrana,55.1333,-7.45,281.02,60,93,5.72,IE,1682334135
180,mahebourg,-20.4081,57.7,301.62,75,76,5.19,MU,1682334135
181,santa cruz cabralia,-16.2781,-39.0247,295.28,94,75,2.57,BR,1682334136
182,puerto ayora,-0.7393,-90.3518,296.79,97,95,0.45,EC,1682334136
183,gamboula,4.1178,15.1393,307.86,37,37,1.38,CF,1682334136
184,krasnovishersk,60.4078,57.082,278.53,77,100,3.01,RU,1682334137
185,sangar,63.9242,127.4739,271.21,78,100,5.42,RU,1682334137
186,lompoc,34.6391,-120.4579,284.7,84,100,9.39,US,1682334137
187,ucluelet,48.9329,-125.5528,278.2,94,97,1.12,CA,1682334138
188,sorland,67.667,12.6934,276.07,61,13,3.8,NO,1682334138
189,grindavik,63.8424,-22.4338,278.41,75,75,6.17,IS,1682334138
190,morro bay,35.3658,-120.8499,285.0,94,0,2.99,US,1682334139
191,biscarrosse,44.3945,-1.1672,287.12,77,100,3.6,FR,1682334139
192,tagusao,9.1924,117.8141,301.67,79,45,4.1,PH,1682334139
193,dafeng,23.4517,108.5881,289.73,86,99,3.27,CN,1682334139
194,linjiang,41.8069,126.9078,281.62,24,62,0.17,CN,1682334140
195,mareeba,-17.0,145.4333,295.55,86,92,1.44,AU,1682334006
196,mitsamiouli,-11.3847,43.2844,301.54,73,23,1.69,KM,1682333560
197,sakakah,29.9697,40.2064,302.91,23,63,3.96,SA,1682333647
198,thunder bay,48.4001,-89.3168,265.68,94,55,2.28,CA,1682334141
199,longyearbyen,78.2186,15.6401,269.06,58,0,1.54,SJ,1682334141
200,polovinnoye,54.7914,65.9864,288.07,35,70,6.7,RU,1682334141
201,hearst,49.6835,-83.6665,270.29,98,100,1.74,CA,1682333570
202,faxinal,-24.0003,-51.3194,287.57,88,4,2.1,BR,1682334142
203,shimoda,34.6667,138.95,284.32,76,100,3.02,JP,1682334015
204,anchorage,61.2181,-149.9003,270.89,63,89,6.71,US,1682334143
205,limbang,4.75,115.0,303.21,93,74,1.39,MY,1682334143
206,imbituba,-28.24,-48.6703,294.18,84,37,1.92,BR,1682334143
207,bud,39.447,-86.1758,272.69,89,4,2.32,US,1682334144
208,namatanai,-3.6667,152.4333,299.96,83,77,2.7,PG,1682334144
209,orichi,58.4036,49.0572,292.41,30,77,4.88,RU,1682334144
210,esperance,-33.8667,121.9,291.69,52,65,6.22,AU,1682334007
211,ayodhya,26.8,82.2,304.35,24,67,6.66,IN,1682334145
212,rawah,34.4816,41.9093,296.65,35,83,2.11,IQ,1682334145
213,sao joao da barra,-21.6403,-41.0511,294.67,75,1,3.68,BR,1682334145
214,yar-sale,66.8333,70.8333,269.36,94,100,12.55,RU,1682334146
215,bethel,41.3712,-73.414,279.62,84,72,0.89,US,1682334146
216,berlevag,70.8578,29.0864,275.15,64,75,5.66,NO,1682334146
217,shizunai,42.3339,142.3669,277.84,70,45,7.13,JP,1682334147
218,barcelos,41.5388,-8.6151,291.31,78,100,2.47,PT,1682334147
219,tual,-5.6667,132.75,301.72,72,31,2.23,ID,1682334147
220,ayame,5.6083,-3.1563,304.08,64,100,2.09,CI,1682334147
221,bogo,11.0517,124.0055,300.56,79,21,4.44,PH,1682334148
222,kibondo,-3.5864,30.7203,290.43,95,99,2.1,TZ,1682334148
223,pevek,69.7008,170.3133,261.44,79,11,2.94,RU,1682334148
224,freeport,40.6576,-73.5832,281.54,74,0,5.14,US,1682334149
225,cristalina,-16.7686,-47.6136,290.67,75,13,4.5,BR,1682334149
226,baker city,44.7749,-117.8344,278.25,92,100,3.12,US,1682334149
227,kaduqli,11.0167,29.7167,311.11,26,75,4.67,SD,1682334149
228,upernavik,72.7868,-56.1549,271.88,95,97,4.61,GL,1682334150
229,port macquarie,-31.4333,152.9167,290.31,79,40,4.21,AU,1682334150
230,nizhniy odes,63.6445,54.856,273.17,78,99,2.64,RU,1682334150
231,san andres,12.5847,-81.7006,299.47,71,45,3.3,CO,1682334150
232,ust-nera,64.5667,143.2,266.15,93,97,3.3,RU,1682334151
233,kodiak,57.79,-152.4072,272.75,63,44,4.28,US,1682334151
234,chapais,49.7834,-74.8492,275.03,99,100,3.11,CA,1682334151
235,hobyo,5.3505,48.5268,303.86,65,100,5.01,SO,1682334152
236,marawi,7.9986,124.2928,294.85,96,99,0.96,PH,1682334152
237,camacha,33.0833,-16.3333,291.83,64,20,4.12,PT,1682334153
238,vinh long,10.25,105.9667,301.14,54,9,6.42,VN,1682334153
239,cherskiy,68.75,161.3,267.97,70,8,2.04,RU,1682334153
240,oskemen,49.9565,82.6119,295.13,15,40,8.0,KZ,1682334154
241,cabedelo,-6.9811,-34.8339,298.52,77,71,5.93,BR,1682334154
242,banjarmasin,-3.3244,114.591,304.23,90,87,1.15,ID,1682333975
243,vardo,70.3705,31.1107,273.14,80,0,6.17,NO,1682334155
244,college station,30.628,-96.3344,285.27,83,100,2.57,US,1682334155
245,torbay,47.6666,-52.7314,276.14,95,100,8.05,CA,1682334156
246,aksarka,66.5606,67.7975,270.53,77,62,7.8,RU,1682334156
247,salekhard,66.53,66.6019,270.66,78,11,8.45,RU,1682334156
248,bambanglipuro,-7.95,110.2833,300.02,84,78,3.58,ID,1682334156
249,manzhouli,49.6,117.4333,277.1,17,100,6.25,CN,1682334157
250,arraial do cabo,-22.9661,-42.0278,295.07,73,75,2.57,BR,1682334157
251,umtata,-31.5889,28.7844,299.7,33,100,1.17,ZA,1682334158
252,ubatuba,-23.4339,-45.0711,294.31,79,0,0.88,BR,1682334158
253,moose factory,51.2585,-80.6094,270.15,93,100,1.54,CA,1682333590
254,sola,-13.8833,167.55,300.97,72,74,4.84,VU,1682334158
255,cockburn town,21.4612,-71.1419,297.77,72,78,1.47,TC,1682333563
256,aykhal,66.0,111.5,267.88,85,87,1.19,RU,1682334132
257,necochea,-38.5473,-58.7368,285.03,85,5,2.65,AR,1682334159
258,ust-kut,56.7938,105.7672,275.23,79,96,0.89,RU,1682334159
259,cayenne,4.9333,-52.3333,296.17,100,100,0.0,GF,1682334160
260,redwater,33.3582,-94.2544,281.31,88,40,2.22,US,1682334161
261,cabo san lucas,22.8909,-109.9124,294.25,51,69,5.23,MX,1682334161
262,iqaluit,63.7506,-68.5145,272.98,93,100,7.15,CA,1682334013
263,dohar,23.5883,90.1469,305.14,28,35,2.54,BD,1682334161
264,nikolskoye,59.7035,30.7861,295.09,32,1,6.18,RU,1682334162
265,thyolo,-16.0678,35.1405,297.79,47,57,2.58,MW,1682334162
266,dwarka,22.2394,68.9678,302.24,62,100,5.51,IN,1682334163
267,astana,51.1801,71.446,288.12,41,75,7.0,KZ,1682334163
268,arti,56.4234,58.5328,289.58,48,94,5.77,RU,1682334163
269,duluth,46.7833,-92.1066,273.86,86,100,4.63,US,1682334164
270,the pas,53.8251,-101.2541,269.05,90,39,2.34,CA,1682334164
271,victoria,22.2855,114.1577,297.25,91,78,3.58,HK,1682333973
272,morondava,-20.2833,44.2833,299.88,62,0,5.68,MG,1682334164
273,kyshtovka,56.555,76.6271,277.91,74,100,8.46,RU,1682334164
274,veraval,20.9,70.3667,302.4,65,100,7.47,IN,1682334165
275,salalah,17.0151,54.0924,303.71,59,54,5.13,OM,1682334165
276,springdale,36.1867,-94.1288,278.08,75,0,3.6,US,1682334165
277,dakar,14.6937,-17.4441,301.64,78,0,3.09,SN,1682333619
278,vallenar,-28.5708,-70.7581,286.4,83,0,0.67,CL,1682334166
279,haimen,23.1935,116.6142,294.61,87,71,5.14,CN,1682334167
280,beloha,-25.1667,45.05,299.27,58,46,6.64,MG,1682334167
281,gambela,8.25,34.5833,310.14,32,46,2.03,ET,1682334167
282,peniche,39.3558,-9.3811,296.09,75,47,3.75,PT,1682334167
283,rio grande,-32.035,-52.0986,292.21,89,32,4.35,BR,1682334168
284,mayumba,-3.432,10.6554,301.4,77,93,2.65,GA,1682334168
285,palmares do sul,-30.2578,-50.5097,293.61,81,40,5.02,BR,1682334168
286,mudon,16.2578,97.7164,305.13,49,2,5.8,MM,1682334168
287,xining,36.6167,101.7667,285.97,21,100,1.88,CN,1682334169
288,grootfontein,-19.5667,18.1167,301.44,36,62,1.94,NA,1682334169
289,maarianhamina,60.0973,19.9348,277.07,81,75,4.12,AX,1682334031
290,gorkovskiy,45.6542,41.199,288.03,66,100,4.28,RU,1682334169
291,erice,38.037,12.5865,290.41,67,34,5.88,IT,1682334170
292,vanavara,60.34,102.2797,275.47,98,100,2.62,RU,1682334170
293,mehamn,71.0357,27.8492,275.12,69,75,2.57,NO,1682334170
294,anadyr,64.75,177.4833,267.43,79,20,11.0,RU,1682333894
295,saquisili,-0.8333,-78.6667,281.22,96,100,0.57,EC,1682334171
296,bubaque,11.2833,-15.8333,300.25,57,92,1.68,GW,1682334171
297,tolaga bay,-38.3667,178.3,283.58,70,46,7.54,NZ,1682334171
298,narsaq,60.9167,-46.05,274.27,77,90,0.59,GL,1682334172
299,chara,56.9064,118.2631,269.53,82,92,0.75,RU,1682334172
300,kholmogory,64.2229,41.656,274.47,100,100,3.11,RU,1682334172
301,hakui,36.8833,136.7833,284.4,54,100,2.94,JP,1682334097
302,carutapera,-1.195,-46.02,298.93,89,100,1.75,BR,1682334173
303,geraldton,-28.7667,114.6,291.38,63,100,6.69,AU,1682333979
304,batticaloa,7.7102,81.6924,303.24,69,75,5.21,LK,1682334174
305,saint george,37.1041,-113.5841,289.48,50,0,6.17,US,1682333586
306,seoul,37.5683,126.9778,289.93,37,0,4.12,KR,1682333708
307,souillac,-20.5167,57.5167,302.43,66,92,2.52,MU,1682334175
308,pinyug,60.251,47.7842,291.21,40,81,5.34,RU,1682334175
309,seybaplaya,19.65,-90.6667,297.54,73,60,4.97,MX,1682334176
310,rock springs,41.5875,-109.2029,272.84,64,0,3.09,US,1682334176
311,waddan,29.1614,16.139,300.0,27,92,3.32,LY,1682334176
312,waipawa,-41.4122,175.5153,280.45,81,47,5.16,NZ,1682334177
313,hualmay,-11.0964,-77.6139,296.24,82,39,4.11,PE,1682334177
314,jalu,29.0331,21.5482,306.21,12,22,3.26,LY,1682334177
315,krasnoselkup,65.7,82.4667,274.0,98,100,8.32,RU,1682334177
316,baruun-urt,46.6806,113.2792,275.78,48,100,12.97,MN,1682334178
317,puerto escondido,15.85,-97.0667,299.26,84,67,2.89,MX,1682334178
318,axim,4.8699,-2.2405,303.18,67,100,2.52,GH,1682334179
319,musoma,-1.5,33.8,296.36,77,100,3.81,TZ,1682334179
320,doctor arroyo,23.6667,-100.1833,288.64,90,34,4.34,MX,1682334179
321,louga,58.7372,29.8453,293.55,33,6,6.36,RU,1682334180
322,pochutla,15.7432,-96.4661,298.61,87,51,2.29,MX,1682334180
323,mackay,-21.15,149.2,297.42,79,81,11.18,AU,1682334002
324,olinda,-8.0089,-34.8553,301.0,78,75,6.69,BR,1682334180
325,teguise,29.0605,-13.564,294.27,60,20,7.2,ES,1682334181
326,fuyang,32.9,115.8167,283.68,79,100,1.87,CN,1682334181
327,dicabisagan,17.0818,122.4157,297.94,82,27,3.08,PH,1682334181
328,amambai,-23.1042,-55.2258,291.49,96,39,3.39,BR,1682334182
329,saldanha,-33.0117,17.9442,291.63,84,100,3.47,ZA,1682334182
330,guadalupe y calvo,26.1,-106.9667,278.41,56,23,2.49,MX,1682334182
331,pangody,65.85,74.4859,269.25,90,100,10.82,RU,1682334183
332,aluksne,57.4167,27.05,292.65,37,5,6.03,LV,1682334183
333,nanortalik,60.1432,-45.2371,274.76,85,55,1.91,GL,1682334183
334,ilulissat,69.2167,-51.1,273.16,100,75,0.0,GL,1682334184
335,san rafael,-34.6177,-68.3301,285.99,74,0,1.95,AR,1682334184
336,sinnamary,5.3833,-52.95,297.33,92,95,2.13,GF,1682334185
337,tonneins,44.3921,0.3124,288.27,63,87,3.83,FR,1682334185
338,mokrous,51.2333,47.5167,293.23,32,52,4.35,RU,1682334186
339,bambous virieux,-20.3428,57.7575,301.6,76,72,5.3,MU,1682334189
340,atar,20.5169,-13.0499,305.88,14,60,3.96,MR,1682334191
341,lakes entrance,-37.8811,147.981,285.46,77,0,1.52,AU,1682334192
342,buraydah,26.326,43.975,305.93,19,91,0.85,SA,1682334192
343,lensk,60.7253,114.9278,272.98,76,87,1.76,RU,1682334193
344,destin,30.3935,-86.4958,290.35,60,40,6.17,US,1682334193
345,beyneu,45.3167,55.2,300.36,17,92,7.82,KZ,1682334194
346,nyimba,-14.5566,30.8149,304.48,27,85,2.81,ZM,1682334194
347,kristiinankaupunki,62.2743,21.376,275.98,82,92,4.5,FI,1682334194
348,burns lake,54.2331,-125.7533,275.23,99,100,1.21,CA,1682334195
349,worthington,40.0931,-83.018,277.02,75,100,3.6,US,1682334196
350,umm lajj,25.0213,37.2685,301.47,53,45,4.98,SA,1682334196
351,jinchang,38.4953,102.1739,282.26,51,100,6.14,CN,1682334198
352,honningsvag,70.9821,25.9704,275.01,64,40,3.6,NO,1682334198
353,batagay,67.6333,134.6333,269.57,91,100,3.63,RU,1682334201
354,mitu,1.1983,-70.1733,294.97,100,100,0.67,CO,1682334201
355,ambilobe,-13.2,49.05,304.65,58,40,3.04,MG,1682334202
356,jacmel,18.2342,-72.5347,296.19,78,32,1.92,HT,1682334203
357,borovoy,55.4333,86.0833,286.75,44,20,4.0,RU,1682333643
358,qunduz,36.729,68.857,303.54,15,95,1.41,AF,1682334203
359,vilyuysk,63.7553,121.6247,271.33,86,58,4.24,RU,1682334204
360,mandalgovi,45.7625,106.2708,277.41,34,80,9.97,MN,1682334204
361,naters,46.3254,7.9891,284.44,92,89,3.37,CH,1682334204
362,lorengau,-2.0226,147.2712,300.9,81,17,3.51,PG,1682334205
363,trat,12.5,102.5,298.34,80,77,2.36,TH,1682334120
364,falam,22.9167,93.6833,296.65,41,91,2.01,MM,1682334206
365,monrovia,6.3005,-10.7969,304.02,69,98,2.83,LR,1682334206
366,mpika,-11.8343,31.4529,297.1,58,49,3.82,ZM,1682334207
367,yumen,40.2833,97.2,288.23,16,0,10.41,CN,1682334207
368,margate,51.3813,1.3862,284.99,67,71,0.45,GB,1682334207
369,emba,48.8264,58.1442,292.14,30,28,3.31,KZ,1682334208
370,boiro,42.65,-8.9,290.25,86,100,3.98,ES,1682334208
371,helsinki,60.1695,24.9355,288.39,69,20,5.66,FI,1682334007
372,kerema,-7.9631,145.7785,300.13,87,100,0.92,PG,1682334209
373,raul soares,-20.1022,-42.4519,293.04,77,97,1.26,BR,1682334209
374,port hardy,50.6996,-127.4199,279.82,87,97,1.31,CA,1682334209
375,denizli,37.8402,29.0698,293.35,33,2,1.5,TR,1682334210
376,noumea,-22.2763,166.4572,299.26,99,39,2.68,NC,1682334121
377,leningradskiy,69.3833,178.4167,254.26,98,52,5.52,RU,1682334210
378,lafiagi,8.8667,5.4167,306.54,52,100,1.82,NG,1682334211
379,erzin,36.9559,36.2,292.92,60,1,4.01,TR,1682334211
380,sitka,57.0531,-135.33,280.09,76,100,4.63,US,1682334211
381,port hedland,-20.3167,118.5667,300.18,69,22,3.09,AU,1682334009
382,pitimbu,-7.4706,-34.8086,298.48,75,83,6.03,BR,1682334214
383,benito juarez,19.385,-99.165,289.82,62,69,2.68,MX,1682333621
384,tecoanapa,16.5167,-98.75,298.18,83,46,1.18,MX,1682333635
385,waingapu,-9.6567,120.2641,299.56,84,53,5.2,ID,1682334214
386,logan lake,50.4998,-120.8025,274.38,99,100,1.41,CA,1682334215
387,sterlibashevo,53.4376,55.2578,291.35,34,8,4.4,RU,1682334215
388,moindou,-21.6924,165.677,297.14,82,78,3.49,NC,1682334216
389,muros,42.7762,-9.0603,290.42,86,100,4.39,ES,1682334216
390,coquimbo,-29.9533,-71.3436,287.72,93,13,1.03,CL,1682334216
391,havoysund,70.9963,24.6622,275.28,57,99,3.31,NO,1682334217
392,grenaa,56.4158,10.8783,285.27,89,92,8.99,DK,1682334217
393,porto novo,6.4965,2.6036,304.32,61,100,2.26,BJ,1682334218
394,saquarema,-22.92,-42.5103,295.17,75,0,1.54,BR,1682334218
395,omsukchan,62.5333,155.8,263.31,92,39,3.12,RU,1682334219
396,karratha,-20.7377,116.8463,300.73,62,6,3.01,AU,1682334219
397,vostochnyy,55.8167,37.8667,293.77,28,12,3.9,RU,1682334219
398,novo aripuana,-5.1206,-60.3797,296.95,94,99,0.65,BR,1682334220
399,maningrida,-12.0667,134.2667,299.66,82,93,5.29,AU,1682334221
400,teya,60.3778,92.6267,278.84,89,100,2.81,RU,1682334221
401,rincon,32.296,-81.2354,290.85,63,100,2.57,US,1682334222
402,guerrero negro,27.9769,-114.0611,288.39,75,65,2.84,MX,1682334222
403,hami,42.8,93.45,293.36,10,5,3.89,CN,1682334223
404,srandakan,-7.9386,110.2506,300.13,84,78,3.49,ID,1682334224
405,huron,41.1501,-82.5499,276.86,89,81,2.65,US,1682334224
406,porto santo,33.072,-16.3415,293.36,64,20,4.12,PT,1682334224
407,nuuk,64.1835,-51.7216,273.49,100,100,6.17,GL,1682334225
408,stromness,58.965,-3.296,278.64,74,100,11.18,GB,1682334226
409,babocsa,46.0416,17.3433,290.23,67,100,3.74,HU,1682334226
410,krasnyy chikoy,50.3643,108.7512,277.61,37,9,2.3,RU,1682334226
411,salta,-24.7859,-65.4117,285.14,95,100,0.89,AR,1682334226
412,port augusta,-32.5,137.7667,294.62,36,0,3.51,AU,1682334227
413,coahuayana,18.7333,-103.6833,294.31,92,52,1.08,MX,1682334227
414,qaqortoq,60.7167,-46.0333,274.51,82,86,0.5,GL,1682334227
415,lethem,3.3803,-59.7968,297.28,87,99,2.42,GY,1682334228
416,tilichiki,60.4667,166.1,272.17,98,100,2.68,RU,1682334229
417,ahuimanu,21.4447,-157.8378,296.9,91,91,0.45,US,1682334229
418,gushikawa,26.3544,127.8686,295.72,69,31,3.74,JP,1682334104
419,rocha,-34.4833,-54.3333,289.35,95,98,1.5,UY,1682334230
420,kamsack,51.5667,-101.9009,270.43,88,53,2.13,CA,1682334231
421,cascais,38.6979,-9.4215,297.32,67,0,4.12,PT,1682334231
422,wanlaweyn,2.6185,44.8938,307.58,45,84,4.16,SO,1682334231
423,erenhot,43.6475,111.9767,287.63,27,100,8.23,CN,1682334232
424,kidal,18.4411,1.4078,309.41,7,0,4.14,ML,1682334232
425,marshall,34.3834,-86.3333,280.59,81,0,2.57,US,1682334233
426,vila velha,-20.3297,-40.2925,297.56,78,66,0.45,BR,1682334233
427,shache,38.4167,77.2406,298.13,11,2,3.04,CN,1682334234
428,pabianice,51.6645,19.3547,295.5,32,0,4.47,PL,1682334120
429,pacific grove,36.6177,-121.9166,284.06,88,20,3.6,US,1682334235
430,nara,34.6851,135.8049,286.8,25,100,1.62,JP,1682334000
431,maragogi,-9.0122,-35.2225,300.14,78,90,4.98,BR,1682334235
432,amudat,1.95,34.95,299.42,54,100,2.13,UG,1682334236
433,norrtalje,59.758,18.705,277.83,73,99,3.41,SE,1682334236
434,kemin,42.7846,75.6892,292.43,40,90,4.85,KG,1682334236
435,kodinar,20.7903,70.7031,303.54,55,100,5.64,IN,1682334236
436,mount gambier,-37.8333,140.7667,287.44,68,0,1.4,AU,1682334237
437,sibu,2.3,111.8167,298.46,96,100,0.22,MY,1682334050
438,honiara,-9.4333,159.95,299.4,87,74,0.86,SB,1682334237
439,bilma,18.6853,12.9164,310.71,6,11,0.81,NE,1682334238
440,homer,59.6425,-151.5483,274.71,57,83,5.36,US,1682334238
441,kontagora,10.3999,5.4695,304.91,49,100,3.5,NG,1682334239
442,vaitape,-16.5167,-151.75,300.16,79,51,3.79,PF,1682334013
443,greenwood,34.1668,-82.1165,284.97,60,100,2.06,US,1682334240
444,nampula,-15.1165,39.2666,300.56,51,6,2.44,MZ,1682334242
445,kijang,35.2442,129.2139,285.94,56,98,7.7,KR,1682334244
446,ketchikan,55.3422,-131.6461,279.41,93,100,5.66,US,1682334244
447,hofn,64.2539,-15.2082,277.16,48,0,3.6,IS,1682334244
448,lodja,-3.4833,23.4333,304.51,47,92,1.3,CD,1682334245
449,partizanskoye,55.5006,94.39,284.27,41,100,4.65,RU,1682334245
450,hambantota,6.1241,81.1185,304.34,79,40,3.09,LK,1682334246
451,sayyan,15.1718,44.3244,295.21,29,46,3.78,YE,1682334246
452,kavaratti,10.5669,72.642,302.22,68,84,4.59,IN,1682334247
453,adrar,20.5022,-10.0711,304.34,14,0,3.13,MR,1682334247
454,sidi ali,36.0998,0.4206,295.38,45,0,2.79,DZ,1682334247
455,pudozh,61.8099,36.5345,288.85,64,21,5.78,RU,1682334248
456,fussen,47.8739,12.1695,286.42,69,100,4.69,DE,1682334248
457,antofagasta,-23.65,-70.4,290.35,87,19,2.25,CL,1682334249
458,santa cruz,-17.8,-63.1667,292.17,91,99,1.7,BO,1682334249
459,faya,18.3851,42.4509,294.44,32,2,5.5,SA,1682334249
460,khorixas,-20.3667,14.9667,302.64,35,12,3.03,NA,1682334249
461,elko,41.0002,-115.5012,276.84,93,83,1.34,US,1682334250
462,kimbe,-5.5502,150.1429,298.78,90,88,1.33,PG,1682334250
463,christchurch,-43.5333,172.6333,279.26,77,19,3.09,NZ,1682334250
464,maniitsoq,65.4167,-52.9,274.23,82,99,2.28,GL,1682334251
465,nemuro,43.3236,145.575,276.07,90,100,4.54,JP,1682334141
466,yerbogachen,61.2767,108.0108,273.67,91,92,1.52,RU,1682334251
467,hay river,60.8156,-115.7999,272.01,98,54,2.69,CA,1682334251
468,nishihara,26.1842,127.7558,295.75,78,75,5.14,JP,1682334252
469,altay,47.8667,88.1167,284.1,43,42,1.73,CN,1682334252
470,santa maria,-29.6842,-53.8069,288.74,81,1,1.83,BR,1682334252
471,brae,60.3964,-1.353,278.1,56,97,11.14,GB,1682334254
472,cikampek,-6.4197,107.4558,299.99,85,56,2.34,ID,1682334254
473,vila franca do campo,37.7167,-25.4333,290.38,94,100,6.16,PT,1682334255
474,san ignacio,17.1561,-89.0714,294.23,94,0,0.0,BZ,1682334255
475,quepos,9.4236,-84.1652,298.51,80,12,1.47,CR,1682334255
476,santa marta,11.2408,-74.199,298.09,75,52,0.89,CO,1682334256
477,paita,-5.0892,-81.1144,298.46,82,99,2.83,PE,1682334257
478,sarakhs,36.5449,61.1577,307.86,10,24,4.62,IR,1682334257
479,rusape,-18.5278,32.1284,300.22,28,85,3.97,ZW,1682334258
480,khandbari,27.3747,87.2039,298.23,41,68,1.89,NP,1682334258
481,marsabit,2.3284,37.9899,297.79,59,89,3.86,KE,1682334258
482,bangassou,4.7413,22.8184,309.38,34,38,0.34,CF,1682334259
483,mao,39.8885,4.2658,293.46,56,20,3.6,ES,1682334259
484,alofi,-19.0595,-169.9187,296.09,88,75,1.54,NU,1682334260
485,manokwari,-0.8667,134.0833,300.16,75,18,0.17,ID,1682334260
486,gladstone,-23.85,151.25,296.11,56,23,3.6,AU,1682334013
487,pontes e lacerda,-15.2261,-59.3353,294.39,96,92,0.94,BR,1682334261
488,fukue,32.6881,128.8419,285.83,79,100,7.79,JP,1682334031
489,broken hill,-31.95,141.4333,293.83,45,0,4.43,AU,1682334051
490,bridlington,54.0831,-0.1919,282.53,80,99,4.02,GB,1682334262
491,lakhnadon,22.6,79.6,307.67,15,83,4.53,IN,1682334262
492,dehloran,32.6941,47.2679,307.23,15,59,3.59,IR,1682334263
493,sambava,-14.2667,50.1667,302.56,66,4,3.75,MG,1682334263
494,nabire,-3.3667,135.4833,299.04,85,18,0.76,ID,1682334265
495,jieshi,22.8134,115.8257,295.58,88,51,4.62,CN,1682334265
496,grand gaube,-20.0064,57.6608,301.69,75,76,2.68,MU,1682334265
497,snyder,32.7179,-100.9176,281.34,87,100,2.06,US,1682334266
498,matara,5.9485,80.5353,302.48,73,95,2.4,LK,1682334266
499,lang son,21.8333,106.7333,299.51,77,79,1.16,VN,1682333996
500,alekseyevka,50.6309,38.6903,289.15,49,68,4.06,RU,1682334266
501,silver city,32.7701,-108.2803,284.99,41,0,3.09,US,1682334267
502,lagoa,39.05,-27.9833,288.94,84,43,8.76,PT,1682334267
503,bairiki,1.3292,172.9752,302.15,74,40,3.6,KI,1682334267
504,henderson,36.0397,-114.9819,294.84,32,0,4.63,US,1682334267
505,carballo,43.213,-8.691,291.96,83,100,4.44,ES,1682334268
506,olean,42.0776,-78.4297,276.53,95,59,1.31,US,1682334268
507,kargasok,59.0556,80.8572,273.15,97,100,8.7,RU,1682334269
508,meteti,8.4983,-77.9786,295.21,96,99,0.59,PA,1682334269
509,sabang,5.8933,95.3214,302.88,70,100,4.71,ID,1682334269
510,coffs harbour,-30.3,153.1333,292.13,88,75,5.66,AU,1682334269
511,itarema,-2.9248,-39.9167,299.36,81,97,4.07,BR,1682334270
512,kolokani,13.5728,-8.0339,311.08,9,20,5.45,ML,1682334270
513,vao,-22.6667,167.4833,298.24,76,50,8.11,NC,1682334271
514,fortuna,40.5982,-124.1573,281.34,94,39,1.73,US,1682334271
515,weligama,5.9667,80.4167,302.19,74,92,2.29,LK,1682334222
516,doka,13.5167,35.7667,311.96,19,9,4.18,SD,1682334272
517,bouar,5.934,15.596,305.02,40,67,2.29,CF,1682334272
518,samarai,-10.6167,150.6667,301.02,80,97,4.32,PG,1682334272
519,baherden,38.4362,57.4316,306.08,17,100,6.63,TM,1682334272
520,paamiut,61.994,-49.6678,273.79,83,67,5.05,GL,1682334273
521,abu samrah,35.3029,37.1841,295.94,28,0,8.41,SY,1682334273
522,taoudenni,22.6783,-3.9836,308.6,11,0,4.22,ML,1682334273
523,benguela,-12.5763,13.4055,303.53,66,31,3.01,AO,1682334273
524,soyo,-6.1349,12.3689,302.81,73,65,2.49,AO,1682334274
525,morshansk,53.4435,41.8107,291.44,36,97,5.14,RU,1682334274
526,bandarbeyla,9.4942,50.8122,303.73,55,19,4.79,SO,1682334275
527,newcastle,-32.9272,151.7765,293.55,85,75,1.54,AU,1682334275
528,basqal,40.7552,48.391,292.31,49,50,3.16,AZ,1682334276
529,muroto,33.2833,134.15,285.97,61,100,8.51,JP,1682334027
530,hamilton,39.1834,-84.5333,275.22,86,0,3.6,US,1682334276
531,durban,-29.8579,31.0292,298.16,80,100,2.68,ZA,1682334240
532,bayanday,53.0661,105.5139,278.11,45,9,2.07,RU,1682334277
533,palatka,29.6486,-81.6376,295.35,91,95,1.85,US,1682334278
534,burley,42.5357,-113.7928,279.43,79,75,2.57,US,1682334279
535,conceicao do araguaia,-8.2578,-49.2647,297.78,81,94,0.93,BR,1682334279
536,palmer,42.1584,-72.3287,280.51,87,75,0.0,US,1682334279
537,dolzhanskaya,46.6311,37.8039,286.25,82,93,4.94,RU,1682334279
538,kattivakkam,13.2167,80.3167,306.2,82,5,5.95,IN,1682334280
539,viedma,-40.8135,-62.9967,285.33,73,0,4.48,AR,1682334280
540,biltine,14.5333,20.9167,312.53,13,47,5.72,TD,1682334280
541,khonsa,27.0167,95.5667,295.53,67,18,0.39,IN,1682334280
542,dabat,12.9842,37.765,295.78,19,98,4.11,ET,1682334281
543,omboue,-1.5746,9.2618,304.18,61,100,3.1,GA,1682334281
544,yarmouth,41.7057,-70.2286,282.23,95,100,4.47,US,1682334281
545,kusti,13.1629,32.6635,313.71,20,7,4.02,SD,1682334282
546,loiza,18.4313,-65.8802,296.52,91,20,0.0,PR,1682334282
547,panama city,8.9936,-79.5197,298.22,81,40,1.54,PA,1682334282
548,tezu,27.9167,96.1667,302.08,47,38,0.83,IN,1682334283
549,ambon,-3.6954,128.1814,303.12,88,40,3.6,ID,1682334008
550,abu dhabi,24.4667,54.3667,301.8,53,78,3.17,AE,1682334191
551,kibaya,-5.3,36.5667,295.92,66,94,2.98,TZ,1682334284
552,clonakilty,51.6231,-8.8706,281.71,78,79,8.04,IE,1682334284
553,prince rupert,54.3161,-130.3201,279.2,100,100,4.63,CA,1682334284
554,charcas,23.1333,-101.1167,286.97,87,31,2.93,MX,1682334284
555,kelo,9.3086,15.8066,311.36,27,75,2.43,TD,1682334285
556,naze,28.3667,129.4833,292.57,81,100,5.41,JP,1682334285
557,svetlyy,54.675,20.1347,291.18,82,87,2.42,RU,1682334286
558,chernyshevskiy,63.0128,112.4714,270.48,91,87,1.67,RU,1682334287
559,killybegs,54.6333,-8.45,280.99,58,84,6.86,IE,1682334287
560,beringovskiy,63.05,179.3167,270.05,91,100,9.35,RU,1682334287
561,vavozh,56.7751,51.931,292.66,32,49,6.08,RU,1682334287
562,vagur,61.4732,-6.8119,275.95,58,100,9.42,FO,1682334288
563,qabaqcol,41.72,46.2647,295.17,56,99,2.16,AZ,1682334288
564,montepuez,-13.1256,38.9997,301.99,58,11,1.38,MZ,1682334288
565,yangjiang,21.85,111.9667,297.71,88,100,3.04,CN,1682334289
566,chapleau,47.8405,-83.4034,271.5,96,100,2.54,CA,1682334289
567,karak,31.1667,35.75,293.5,29,0,6.31,JO,1682334289
568,nome,64.5011,-165.4064,265.19,53,0,4.63,US,1682334289
569,gogrial,8.5332,28.1004,309.66,29,91,2.85,SS,1682334290
570,beipiao,41.7919,120.7792,288.23,17,85,7.1,CN,1682334290
571,nuevo progreso,23.1667,-97.95,292.3,84,36,6.33,MX,1682334290
