City_ID,City,Lat,Lng,Max Temp,Humidity,Cloudiness,Wind Speed,Country,Date
0,hilo,19.7297,-155.09,297.75,84,100,1.54,US,1682317927
1,victoria,22.2855,114.1577,300.35,87,92,5.36,HK,1682317924
2,naantali,60.4674,22.0243,279.22,94,100,4.63,FI,1682317927
3,bredasdorp,-34.5322,20.0403,292.45,85,100,3.44,ZA,1682317927
4,cabo san lucas,22.8909,-109.9124,297.32,55,100,0.45,MX,1682317928
5,benguela,-12.5763,13.4055,300.3,78,95,1.29,AO,1682317928
6,coihaique,-45.5752,-72.0662,283.49,93,0,3.6,CL,1682317928
7,albany,42.6001,-73.9662,278.51,82,94,3.13,US,1682317928
8,busselton,-33.65,115.3333,287.57,67,43,7.73,AU,1682317929
9,calvinia,-31.4707,19.776,289.87,80,100,2.02,ZA,1682317929
10,ushuaia,-54.8,-68.3,279.96,65,100,3.09,AR,1682317929
11,puri,19.8,85.85,306.44,68,84,5.0,IN,1682317929
12,pareora,-44.4871,171.2132,283.81,30,0,5.57,NZ,1682317930
13,ribeira grande,38.5167,-28.7,290.37,88,75,7.2,PT,1682317930
14,najran,17.4924,44.1277,299.51,40,63,1.15,SA,1682317930
15,alice springs,-23.7,133.8833,300.9,26,8,3.09,AU,1682317677
16,yichun,47.7,128.9,283.4,14,50,5.65,CN,1682317931
17,palmer,42.1584,-72.3287,280.62,87,100,1.54,US,1682317931
18,ostersund,63.1792,14.6357,270.98,87,100,1.71,SE,1682317932
19,sao joao da barra,-21.6403,-41.0511,292.2,86,0,4.01,BR,1682317932
20,kahului,20.8947,-156.47,296.95,82,75,1.54,US,1682317932
21,barrow,71.2906,-156.7887,256.16,85,100,3.6,US,1682317932
22,butaritari,3.0707,172.7902,301.46,80,100,8.13,KI,1682317933
23,dunedin,-45.8742,170.5036,284.71,10,40,7.24,NZ,1682317803
24,the valley,18.217,-63.0578,299.07,76,54,2.69,AI,1682317934
25,kuching,1.55,110.3333,302.11,81,40,3.58,MY,1682317704
26,dikson,73.5069,80.5464,274.2,87,97,5.62,RU,1682317934
27,hermanus,-34.4187,19.2345,290.82,91,100,7.26,ZA,1682317935
28,mataura,-46.1927,168.8643,284.53,77,68,3.26,NZ,1682317935
29,tigil,57.8,158.6667,275.06,87,99,0.54,RU,1682317935
30,sao filipe,14.8961,-24.4956,296.38,70,0,5.35,CV,1682317935
31,lorengau,-2.0226,147.2712,302.15,76,26,4.32,PG,1682317936
32,port alfred,-33.5906,26.891,295.58,59,100,3.23,ZA,1682317936
33,rikitea,-23.1203,-134.9692,299.62,88,100,6.96,PF,1682317936
34,east london,-33.0153,27.9116,293.67,73,0,2.06,ZA,1682317936
35,punta arenas,-53.15,-70.9167,278.21,93,100,2.57,CL,1682317937
36,hobart,-42.8794,147.3294,290.52,71,0,1.48,AU,1682317877
37,kalmar,56.6616,16.3616,277.11,100,100,1.54,SE,1682317937
38,siniscola,40.5719,9.6922,289.9,63,97,4.91,IT,1682317937
39,pevek,69.7008,170.3133,268.27,84,2,2.23,RU,1682317937
40,chuy,-33.6971,-53.4616,290.27,95,95,2.38,UY,1682317938
41,rio grande,-32.035,-52.0986,292.51,93,100,4.37,BR,1682317938
42,saldanha,-33.0117,17.9442,290.18,98,100,3.8,ZA,1682317938
43,hithadhoo,-0.6,73.0833,302.52,69,100,2.55,MV,1682317938
44,port elizabeth,-33.918,25.5701,292.65,93,20,2.57,ZA,1682317939
45,atuona,-9.8,-139.0333,300.59,78,8,6.19,PF,1682317939
46,kokopo,-4.352,152.2633,300.94,76,62,0.61,PG,1682317939
47,beyneu,45.3167,55.2,297.46,24,94,7.81,KZ,1682317940
48,plettenberg bay,-34.0527,23.3716,294.15,74,100,1.12,ZA,1682317940
49,coquimbo,-29.9533,-71.3436,288.29,89,1,1.86,CL,1682317940
50,uyuni,-20.4597,-66.825,276.41,29,0,3.88,BO,1682317941
51,biak,-0.9131,122.8766,301.5,73,33,1.78,ID,1682317941
52,lebu,-37.6167,-73.65,283.99,87,3,3.33,CL,1682317943
53,olafsvik,64.8945,-23.7142,276.04,60,100,4.13,IS,1682317943
54,hay river,60.8156,-115.7999,273.14,80,75,4.63,CA,1682317944
55,miracema do tocantins,-9.5618,-48.3967,295.59,82,30,1.05,BR,1682317944
56,salinas,36.6777,-121.6555,285.6,83,100,6.17,US,1682317945
57,talnakh,69.4865,88.3972,275.49,87,19,3.71,RU,1682317945
58,lugovoy,42.9472,72.7644,295.67,32,99,5.96,KZ,1682317946
59,raga,8.4596,25.678,298.35,71,100,5.11,SS,1682317946
60,saint-pierre,-21.3393,55.4781,302.35,65,20,2.57,RE,1682317699
61,comodoro rivadavia,-45.8667,-67.5,284.07,62,0,1.03,AR,1682317948
62,springfield,37.2153,-93.2982,278.65,72,0,2.06,US,1682317760
63,saskylakh,71.9167,114.0833,266.4,88,86,3.11,RU,1682317948
64,bluff,-46.6,168.3333,284.71,65,80,11.23,NZ,1682317948
65,panama city,8.9936,-79.5197,299.12,82,100,2.57,PA,1682317949
66,samarai,-10.6167,150.6667,302.18,74,100,3.92,PG,1682317949
67,tura,25.5198,90.2201,305.41,29,26,1.97,IN,1682317950
68,new norfolk,-42.7826,147.0587,290.32,46,0,1.31,AU,1682317951
69,guerrero negro,27.9769,-114.0611,287.57,86,16,3.75,MX,1682317953
70,goundam,16.4145,-3.6708,301.21,13,3,4.72,ML,1682317953
71,manakara,-22.1333,48.0167,300.29,68,0,1.35,MG,1682317953
72,hobyo,5.3505,48.5268,303.07,67,100,4.52,SO,1682317954
73,vaini,-21.2,-175.2,298.24,88,75,2.57,TO,1682317955
74,provideniya,64.3833,-173.3,262.53,81,5,5.24,RU,1682317955
75,sistranda,63.7256,8.834,275.13,60,100,8.09,NO,1682317956
76,kuito,-12.3833,16.9333,292.12,81,100,0.94,AO,1682317956
77,avarua,-21.2078,-159.775,296.18,78,66,2.06,CK,1682317956
78,acapulco,16.8634,-99.8901,300.05,78,40,2.06,MX,1682317956
79,bonavista,48.6499,-53.1147,274.09,91,100,8.08,CA,1682317957
80,grand gaube,-20.0064,57.6608,302.37,73,66,3.13,MU,1682317957
81,bereda,43.2686,-7.5406,286.01,100,100,2.23,ES,1682317957
82,lebedinyy,58.5167,125.5167,269.57,69,100,8.1,RU,1682317958
83,padang,-0.9492,100.3543,302.94,76,71,2.34,ID,1682317783
84,omboue,-1.5746,9.2618,300.1,84,83,1.73,GA,1682317958
85,saint-philippe,-21.3585,55.7679,301.92,68,34,4.64,RE,1682317958
86,kapaa,22.0752,-159.319,298.14,93,75,2.57,US,1682317959
87,kariba,-16.5167,28.8,299.67,45,10,1.66,ZW,1682317959
88,champerico,14.3,-91.9167,301.17,69,5,3.79,GT,1682317959
89,moose factory,51.2585,-80.6094,272.15,93,100,1.54,CA,1682317959
90,turayf,31.6725,38.6637,294.29,37,75,7.2,SA,1682317960
91,ostrovnoy,68.0531,39.5131,269.33,86,14,6.84,RU,1682317961
92,grindavik,63.8424,-22.4338,276.41,93,100,4.12,IS,1682317961
93,yellowknife,62.456,-114.3525,273.46,86,20,2.06,CA,1682317686
94,kashi,39.4547,75.9797,294.71,21,0,2.0,CN,1682317962
95,nikolskoye,59.7035,30.7861,289.71,47,0,5.41,RU,1682317962
96,husavik,66.0449,-17.3389,272.22,63,24,1.43,IS,1682317963
97,saint george,37.1041,-113.5841,292.01,44,20,9.26,US,1682317963
98,chokurdakh,70.6333,147.9167,267.64,89,16,5.76,RU,1682317963
99,ancud,-41.8697,-73.8203,280.05,87,1,1.18,CL,1682317964
100,upata,8.0086,-62.3989,295.48,89,98,0.29,VE,1682317964
101,mar del plata,-38.0023,-57.5575,287.56,96,100,2.06,AR,1682317964
102,kavieng,-2.5744,150.7967,302.14,73,26,3.28,PG,1682317964
103,severo-kurilsk,50.6789,156.125,273.1,81,100,9.35,RU,1682317964
104,torbay,47.6666,-52.7314,275.59,95,100,9.83,CA,1682317810
105,tuktoyaktuk,69.4541,-133.0374,251.63,100,100,1.38,CA,1682317965
106,osias,7.6,124.8167,304.59,57,98,0.39,PH,1682317966
107,ueda,36.4,138.2667,286.67,28,100,2.56,JP,1682317875
108,tual,-5.6667,132.75,301.65,72,42,1.62,ID,1682317967
109,fortuna,40.5982,-124.1573,281.85,87,46,1.45,US,1682317967
110,longyearbyen,78.2186,15.6401,265.35,82,90,0.78,SJ,1682317967
111,northam,51.0333,-4.2167,282.25,95,87,3.88,GB,1682317967
112,arman,59.7,150.1667,277.05,68,100,3.24,RU,1682317968
113,paraiso,9.8383,-83.8656,291.97,91,27,1.26,CR,1682317968
114,vardo,70.3705,31.1107,270.14,86,0,6.17,NO,1682317968
115,bethel,41.3712,-73.414,281.32,86,40,1.54,US,1682317969
116,jamestown,42.097,-79.2353,277.92,92,100,2.06,US,1682317969
117,gorontalo,0.5412,123.0595,303.33,73,33,1.46,ID,1682317766
118,homer,59.6425,-151.5483,276.08,57,0,1.79,US,1682317969
119,nouadhibou,20.931,-17.0347,292.14,72,97,9.26,MR,1682317969
120,sao gabriel da cachoeira,-0.1303,-67.0892,295.24,99,97,0.48,BR,1682317970
121,iqaluit,63.7506,-68.5145,273.0,100,100,1.54,CA,1682317970
122,betioky,-23.7167,44.3833,295.52,78,94,1.9,MG,1682317970
123,upernavik,72.7868,-56.1549,269.09,99,93,2.01,GL,1682317970
124,harper,4.375,-7.7169,299.95,85,100,2.53,LR,1682317971
125,porto novo,6.4965,2.6036,298.05,86,100,0.52,BJ,1682317971
126,westport,41.1415,-73.3579,283.19,89,20,2.06,US,1682317971
127,yazman,29.1212,71.7446,308.42,10,0,3.56,PK,1682317971
128,namibe,-15.1961,12.1522,297.77,67,18,3.59,AO,1682317972
129,half moon bay,37.4636,-122.4286,285.88,84,100,10.29,US,1682317972
130,teacapan,22.55,-105.75,292.33,77,98,1.82,MX,1682317972
131,luderitz,-26.6481,15.1594,291.25,55,5,2.63,NA,1682317973
132,te anau,-45.4167,167.7167,278.91,83,26,0.79,NZ,1682317973
133,edea,3.8,10.1333,298.72,90,100,0.59,CM,1682317973
134,twin falls,42.3505,-114.6445,281.09,76,20,6.69,US,1682317973
135,arraial do cabo,-22.9661,-42.0278,293.85,77,0,2.38,BR,1682317974
136,kruisfontein,-34.0033,24.7314,291.42,64,100,2.13,ZA,1682317974
137,stavern,59.0,10.0333,281.58,96,100,3.94,NO,1682317974
138,tutoia,-2.7619,-42.2744,296.29,91,13,2.54,BR,1682317974
139,blagoyevo,63.3667,47.9167,274.43,74,100,2.76,RU,1682317975
140,marsh harbour,26.5412,-77.0636,296.59,74,37,3.82,BS,1682317975
141,markova,48.6758,24.4138,285.8,61,94,0.72,UA,1682317975
142,presidencia roque saenz pena,-26.7852,-60.4388,291.45,59,98,1.77,AR,1682317976
143,kaihua,23.3687,104.28,303.49,31,58,7.56,CN,1682317976
144,agadez,19.75,10.25,302.24,9,100,2.17,NE,1682317976
145,sereflikochisar,38.9393,33.5386,284.23,60,9,4.46,TR,1682317977
146,bambous virieux,-20.3428,57.7575,302.29,74,40,5.14,MU,1682317977
147,mount gambier,-37.8333,140.7667,293.68,50,0,0.45,AU,1682317919
148,solnechnyy,50.7214,136.6319,277.46,61,100,5.22,RU,1682317978
149,komatipoort,-25.4332,31.9548,295.4,61,15,1.06,ZA,1682317978
150,ponta do sol,32.6667,-17.1,290.5,77,89,1.7,PT,1682317978
151,pendleton,45.6721,-118.7886,283.49,73,100,4.12,US,1682317978
152,camacha,33.0833,-16.3333,288.83,77,20,1.54,PT,1682317979
153,auki,-8.7676,160.7034,300.02,83,14,0.71,SB,1682317979
154,thompson,55.7435,-97.8558,268.24,74,20,1.03,CA,1682317979
155,shunyi,40.125,116.6453,291.12,34,0,7.0,CN,1682317979
156,kaitangata,-46.2817,169.8464,283.11,76,56,5.35,NZ,1682317980
157,tagusao,9.1924,117.8141,303.51,68,42,3.7,PH,1682317980
158,rudnogorsk,57.2639,103.7519,277.16,51,100,2.81,RU,1682317980
159,kasangulu,-4.5911,15.1708,295.93,91,100,0.66,CD,1682317981
160,pangnirtung,66.1451,-65.7125,272.85,84,100,3.05,CA,1682317981
161,polis,35.0367,32.4264,293.31,72,0,3.24,CY,1682317981
162,yar-sale,66.8333,70.8333,267.87,94,100,12.07,RU,1682317982
163,ulaangom,49.9811,92.0667,282.86,24,62,4.7,MN,1682317982
164,henties bay,-22.116,14.2845,291.27,76,3,4.06,NA,1682317982
165,erzin,36.9559,36.2,290.89,68,4,2.74,TR,1682317982
166,cidreira,-30.1811,-50.2056,293.67,87,93,6.06,BR,1682317983
167,san cristobal,7.7669,-72.225,292.34,97,100,1.51,VE,1682317983
168,jizan,17.3333,42.6667,306.67,34,1,2.22,SA,1682317983
169,mirabad,30.4362,61.8383,305.22,10,100,2.76,AF,1682317983
170,nikki,9.9401,3.2108,297.52,83,100,2.43,BJ,1682317983
171,codrington,-38.2667,141.9667,293.66,54,0,1.56,AU,1682317984
172,khatanga,71.9667,102.5,271.16,82,7,3.9,RU,1682317984
173,narsaq,60.9167,-46.05,272.27,75,79,0.76,GL,1682317984
174,kodiak,57.79,-152.4072,272.88,59,100,9.26,US,1682317984
175,jamame,0.0722,42.7506,305.48,57,63,3.59,SO,1682317985
176,ganganagar,29.9167,73.8833,308.25,11,0,3.82,IN,1682317985
177,atherton,53.5237,-2.4935,280.23,78,100,1.15,GB,1682317986
178,mahebourg,-20.4081,57.7,302.31,74,40,5.14,MU,1682317959
179,singaraja,-8.112,115.0882,302.1,78,40,2.2,ID,1682317925
180,kutum,14.2,24.6667,302.99,29,9,5.88,SD,1682317986
181,geraldton,-28.7667,114.6,293.38,60,100,6.69,AU,1682317768
182,broome,42.2506,-75.833,277.2,96,100,2.06,US,1682317987
183,saint-augustin,51.226,-58.6502,274.06,93,12,1.89,CA,1682317987
184,tamiahua,21.2667,-97.45,297.98,91,100,6.82,MX,1682317987
185,faya,18.3851,42.4509,294.44,37,0,2.52,SA,1682317988
186,quatre cocos,-20.2078,57.7625,302.21,74,55,4.49,MU,1682317988
187,darab,28.7519,54.5444,300.68,17,5,2.36,IR,1682317988
188,morgan city,29.6994,-91.2068,290.15,72,40,4.63,US,1682317988
189,maues,-3.3836,-57.7186,295.25,97,100,0.98,BR,1682317989
190,rapid city,44.0805,-103.231,276.89,55,0,2.57,US,1682317757
191,mitzic,0.7821,11.549,296.31,89,95,0.44,GA,1682317989
192,humaita,-7.5061,-63.0208,295.31,98,56,0.71,BR,1682317989
193,monzon,41.9108,0.1941,287.49,55,81,2.38,ES,1682317990
194,ziro,27.6333,93.8333,290.56,64,58,1.4,IN,1682317990
195,ornskoldsvik,63.2909,18.7153,272.68,86,100,4.12,SE,1682317990
196,krasnyy chikoy,50.3643,108.7512,280.82,23,5,3.7,RU,1682317991
197,qaanaaq,77.484,-69.3632,259.72,69,68,3.63,GL,1682317991
198,vestby,59.6024,10.7467,280.87,92,100,1.79,NO,1682317991
199,okha,53.5739,142.9478,274.25,74,9,8.74,RU,1682317879
200,nexo,55.0607,15.1306,282.2,97,100,6.2,DK,1682317992
201,dalvik,65.9702,-18.5286,267.11,67,83,0.87,IS,1682317992
202,butembo,0.15,29.2833,288.67,97,100,0.9,CD,1682317992
203,ixtapa,20.7,-105.2,294.72,88,20,0.0,MX,1682317993
204,kununurra,-15.7667,128.7333,307.14,36,0,3.09,AU,1682317993
205,tasiilaq,65.6145,-37.6368,272.24,96,99,3.81,GL,1682317993
206,ilulissat,69.2167,-51.1,273.16,100,100,1.54,GL,1682317994
207,waingapu,-9.6567,120.2641,302.18,72,33,6.59,ID,1682317994
208,naze,28.3667,129.4833,295.66,81,100,6.87,JP,1682317921
209,hermon,44.8101,-68.9134,280.13,86,100,5.14,US,1682317994
210,nador,35.174,-2.9287,287.29,77,0,0.51,MA,1682317995
211,pontal do parana,-25.6533,-48.5128,291.13,93,41,1.32,BR,1682317995
212,butler,39.4501,-84.5666,276.57,84,75,0.0,US,1682317995
213,airai,-8.9266,125.4092,293.77,75,93,1.86,TL,1682317995
214,cairns,-16.9167,145.7667,302.63,90,75,5.14,AU,1682317813
215,tiksi,71.6872,128.8694,267.19,89,91,3.25,RU,1682317996
216,ekhabi,53.5102,142.9671,274.35,73,8,8.63,RU,1682317996
217,preobrazheniye,42.9019,133.9064,282.91,32,3,7.22,RU,1682317997
218,toktogul,41.8708,72.9402,292.62,35,77,0.68,KG,1682317997
219,ulladulla,-35.35,150.4667,294.13,82,26,3.47,AU,1682317997
220,fort nelson,58.8053,-122.7002,272.92,64,100,6.17,CA,1682317998
221,jiuquan,39.7432,98.5174,290.31,16,96,9.94,CN,1682317838
222,castro,-24.7911,-50.0119,285.43,96,96,2.68,BR,1682317998
223,port arthur,38.8,121.2667,291.27,37,60,3.38,CN,1682317999
224,myitkyina,25.3833,97.4,311.47,20,0,1.94,MM,1682317999
225,deputatskiy,69.3,139.9,267.65,87,100,3.05,RU,1682317999
226,dobryanka,58.4619,56.4165,284.15,53,99,2.24,RU,1682317869
227,catuday,16.2923,119.8062,301.75,68,21,5.17,PH,1682318000
228,tepalcatepec,19.1833,-102.85,297.24,54,72,0.5,MX,1682318000
229,faanui,-16.4833,-151.75,300.5,76,23,2.94,PF,1682318000
230,gazli,40.1333,63.45,303.6,14,9,8.99,UZ,1682318000
231,georgetown,5.4112,100.3354,306.11,66,20,4.12,MY,1682317770
232,menongue,-14.6585,17.691,295.02,72,48,0.9,AO,1682318001
233,iztapa,13.9333,-90.7075,299.77,77,10,2.53,GT,1682318001
234,andenes,69.3143,16.1194,273.14,69,20,4.12,NO,1682318002
235,haines junction,60.7522,-137.5108,269.12,68,100,3.09,CA,1682318002
236,bengkulu,-3.8004,102.2655,302.52,73,91,3.4,ID,1682317840
237,zaton,53.2936,83.8072,290.92,20,75,9.0,RU,1682318003
238,vysokogornyy,50.1167,139.15,274.39,81,100,5.25,RU,1682318003
239,aklavik,68.2191,-135.0107,254.14,95,100,3.72,CA,1682318003
240,bilma,18.6853,12.9164,303.77,8,13,4.62,NE,1682318004
241,tambopata,-12.7333,-69.1833,292.79,89,79,0.85,PE,1682318004
242,puerto leguizamo,-0.1934,-74.7819,295.06,99,100,0.48,CO,1682318004
243,voh,-20.9667,164.7,296.54,87,89,4.11,NC,1682318004
244,souillac,-20.5167,57.5167,302.36,74,40,5.14,MU,1682318004
245,okato,-39.2,173.8833,284.21,100,68,2.39,NZ,1682318005
246,isangel,-19.55,169.2667,301.21,78,75,1.54,VU,1682318005
247,neuquen,-38.9516,-68.0591,288.09,72,0,0.0,AR,1682318005
248,sur,22.5667,59.5289,303.1,61,82,2.74,OM,1682318006
249,vestmanna,62.1564,-7.1664,273.66,64,100,7.2,FO,1682318006
250,obidos,-1.9175,-55.5181,295.98,95,100,0.81,BR,1682318006
251,takoradi,4.8845,-1.7554,300.06,83,100,0.75,GH,1682317802
252,mandalgovi,45.7625,106.2708,277.67,53,100,9.97,MN,1682318007
253,broken hill,-31.95,141.4333,298.13,31,0,4.71,AU,1682317835
254,hami,42.8,93.45,291.98,14,5,4.53,CN,1682318008
255,solginskiy,61.05,41.3428,286.78,56,70,4.15,RU,1682318008
256,fuzhou,26.0614,119.3061,292.09,89,100,1.83,CN,1682318008
257,praya,14.9215,-23.5087,294.45,78,40,6.69,CV,1682318008
258,kauhajoki,62.4333,22.1833,274.32,93,100,2.68,FI,1682318009
259,la ronge,55.1001,-105.2842,276.29,35,75,4.63,CA,1682318010
260,esperance,-33.8667,121.9,295.92,55,85,8.3,AU,1682318011
261,port lincoln,-34.7333,135.8667,293.79,63,0,4.96,AU,1682318011
262,puerto ayora,-0.7393,-90.3518,298.46,93,56,2.24,EC,1682318011
263,cherskiy,68.75,161.3,274.71,65,4,2.6,RU,1682318012
264,horodnytsya,50.807,27.3168,287.06,56,7,4.3,UA,1682318012
265,baghdad,33.3406,44.4009,298.1,50,100,2.06,IQ,1682317854
266,bintulu,3.1667,113.0333,298.38,100,40,1.03,MY,1682318012
267,cape town,-33.9258,18.4232,291.55,97,100,5.14,ZA,1682317855
268,ust-kut,56.7938,105.7672,277.32,52,64,1.99,RU,1682318013
269,tilichiki,60.4667,166.1,272.64,97,100,5.81,RU,1682318013
270,pekalongan,-6.8886,109.6753,302.85,71,20,3.2,ID,1682318013
271,balykshi,47.0667,51.8667,294.15,35,0,9.0,KZ,1682318014
272,nabire,-3.3667,135.4833,302.39,68,11,1.78,ID,1682318014
273,la romana,18.4273,-68.9728,295.44,86,7,3.11,DO,1682318014
274,parry sound,45.3501,-80.033,276.18,93,100,2.24,CA,1682318015
275,tuatapere,-46.1333,167.6833,280.96,81,21,3.42,NZ,1682318015
276,carnarvon,-24.8667,113.6333,296.15,62,84,7.45,AU,1682318016
277,vanimo,-2.6741,141.3028,301.08,82,100,2.59,PG,1682318016
278,ternate,0.8,127.4,302.44,70,36,2.87,ID,1682317941
279,prainha,-1.8,-53.48,295.4,99,81,0.72,BR,1682318017
280,lukovetskiy,64.2956,41.9211,273.47,95,100,2.96,RU,1682318018
281,touros,-5.1989,-35.4608,297.11,90,100,4.62,BR,1682318019
282,cravo norte,6.3017,-70.2041,297.42,87,100,2.61,CO,1682318019
283,zharkent,44.1628,80.0,296.04,12,43,1.78,KZ,1682318019
284,shihezi,44.3,86.0333,293.05,16,9,3.7,CN,1682318019
285,dingle,10.9995,122.6711,305.59,53,97,5.06,PH,1682318020
286,taltal,-25.4,-70.4833,290.05,85,17,0.93,CL,1682318020
287,surgut,61.25,73.4167,272.25,63,75,10.0,RU,1682318020
288,gamba,-2.65,10.0,299.97,83,99,1.69,GA,1682318020
289,palembang,-2.9167,104.7458,306.2,58,40,1.54,ID,1682318010
290,lagoa,39.05,-27.9833,288.71,93,100,5.81,PT,1682318021
291,kavaratti,10.5669,72.642,302.38,67,96,5.69,IN,1682318021
292,commerce city,39.8083,-104.9339,281.26,58,0,5.14,US,1682318021
293,santa fe,-31.6333,-60.7,291.48,85,100,1.34,AR,1682318021
294,doctor mora,21.1417,-100.3125,288.63,75,21,1.67,MX,1682318022
295,ampanihy,-24.7,44.75,298.18,60,33,5.55,MG,1682318022
296,anadyr,64.75,177.4833,267.43,85,40,13.0,RU,1682318022
297,stonewall,50.1344,-97.3268,273.55,76,16,2.07,CA,1682318022
298,atar,20.5169,-13.0499,297.26,25,58,3.9,MR,1682318023
299,poum,-20.2333,164.0167,298.94,78,100,10.95,NC,1682318023
300,channel-port aux basques,47.5702,-59.1367,276.76,87,4,2.82,CA,1682318023
301,potiskum,11.7091,11.0694,302.41,47,100,6.33,NG,1682318023
302,murray bridge,-35.1167,139.2667,298.28,36,0,3.47,AU,1682318024
303,jiayuguan,39.8167,98.3,288.28,18,89,10.68,CN,1682317730
304,noumea,-22.2763,166.4572,300.37,99,51,3.66,NC,1682317803
305,natal,-5.795,-35.2094,297.51,88,20,3.09,BR,1682318025
306,caucaia,-3.7361,-38.6531,299.12,79,20,2.06,BR,1682318025
307,atbasar,51.8,68.3333,287.9,45,12,7.26,KZ,1682318025
308,katsuura,35.1333,140.3,285.76,59,100,5.03,JP,1682317750
309,rawson,-43.3002,-65.1023,289.38,51,29,4.3,AR,1682318026
310,belogorsk,50.9158,128.4611,283.11,16,49,5.95,RU,1682318026
311,koppal,15.35,76.15,306.97,21,5,1.99,IN,1682318026
312,hovd,48.0056,91.6419,282.21,23,98,3.19,MN,1682318026
313,zaranj,30.9667,61.8833,306.13,9,100,3.05,AF,1682318026
314,dwarka,22.2394,68.9678,303.11,54,100,4.07,IN,1682318027
315,parana,-31.732,-60.5238,291.23,87,100,1.77,AR,1682317798
316,bobo dioulasso,11.1771,-4.2979,300.4,65,0,5.14,BF,1682318027
317,pacific grove,36.6177,-121.9166,284.97,88,100,3.6,US,1682318027
318,raudeberg,61.9875,5.1352,276.52,66,100,15.87,NO,1682318028
319,baykit,61.67,96.37,276.42,99,100,2.45,RU,1682318028
320,polunochnoye,60.8697,60.4153,276.17,38,100,3.96,RU,1682318028
321,trelew,-43.249,-65.3051,289.19,46,21,4.09,AR,1682318028
322,aras,42.5617,-2.356,283.55,94,75,0.51,ES,1682318029
323,clyde river,70.4692,-68.5914,262.28,85,100,1.03,CA,1682317984
324,keti bandar,24.1447,67.4497,304.43,47,100,4.69,PK,1682318029
325,kandrian,-6.2167,149.55,301.76,73,45,1.41,PG,1682318029
326,necochea,-38.5473,-58.7368,285.31,88,1,3.23,AR,1682318030
327,bukachacha,52.9833,116.9167,275.54,29,100,6.05,RU,1682318030
328,voyvozh,62.892,54.9635,272.45,75,100,2.82,RU,1682318030
329,cayenne,4.9333,-52.3333,296.17,100,100,0.0,GF,1682318030
330,cap malheureux,-19.9842,57.6142,301.74,73,61,3.13,MU,1682318031
331,tabuk,17.4189,121.4443,304.66,49,41,2.58,PH,1682318031
332,leh,34.1667,77.5833,275.43,25,2,0.91,IN,1682317968
333,arona,28.0996,-16.681,289.02,84,20,3.09,ES,1682318031
334,odweyne,9.4092,45.064,300.51,53,35,4.91,SO,1682318032
335,bad kreuznach,49.8333,7.8667,283.74,78,100,6.58,DE,1682318032
336,howard springs,-12.497,131.047,306.47,61,11,3.18,AU,1682318032
337,niquelandia,-14.4739,-48.4597,292.2,81,5,1.63,BR,1682318033
338,amahai,-3.3333,128.9167,302.01,75,46,2.18,ID,1682318033
339,bonthe,7.5264,-12.505,300.26,85,59,1.16,SL,1682318034
340,slave lake,55.2834,-114.769,281.14,42,100,3.09,CA,1682318035
341,dawei,14.0833,98.2,308.73,44,14,5.69,MM,1682318035
342,lompoc,34.6391,-120.4579,285.81,81,100,9.83,US,1682318036
343,vitim,59.4511,112.5578,274.61,72,100,3.41,RU,1682318036
344,begunitsy,59.5855,29.3176,288.88,50,0,5.78,RU,1682318036
345,pontianak,-0.0333,109.3333,299.14,89,40,1.54,ID,1682318037
346,egvekinot,66.3167,-179.1667,259.33,76,1,4.63,RU,1682318037
347,kloulklubed,7.0419,134.2556,302.43,72,97,2.26,PW,1682318037
348,bairnsdale,-37.8333,147.6167,293.74,70,0,1.79,AU,1682318037
349,yershov,51.3513,48.2766,289.64,45,45,4.64,RU,1682317892
350,heihe,50.2441,127.4902,284.47,15,100,5.39,CN,1682317826
351,bocas del toro,9.3333,-82.25,299.03,79,86,1.15,PA,1682318039
352,axim,4.8699,-2.2405,300.29,83,100,0.72,GH,1682318039
353,srednekolymsk,67.45,153.6833,274.55,85,100,5.4,RU,1682318039
354,guanica,17.9716,-66.908,297.58,64,86,1.79,PR,1682318040
355,palana,59.1167,159.9667,273.54,68,100,8.91,RU,1682318040
356,bequimao,-2.4489,-44.7825,296.55,94,100,0.09,BR,1682318040
357,nueva loja,0.0847,-76.8828,293.4,99,100,0.4,EC,1682318041
358,potosi,-19.5836,-65.7531,276.88,74,0,1.01,BO,1682318041
359,san juan,-31.5375,-68.5364,287.27,71,27,2.9,AR,1682318041
360,vila franca do campo,37.7167,-25.4333,289.38,95,100,6.51,PT,1682318041
361,hua hin,12.5707,99.9588,307.16,55,20,3.6,TH,1682317954
362,kalabo,-14.97,22.6814,298.74,52,100,2.61,ZM,1682318042
363,sitka,57.0531,-135.33,280.09,81,100,4.12,US,1682318042
364,vao,-22.6667,167.4833,298.51,74,10,6.93,NC,1682318042
365,alta floresta,-9.8756,-56.0861,293.69,99,98,1.48,BR,1682318043
366,pandan,14.0453,124.1694,301.33,70,32,4.75,PH,1682318043
367,kenora,49.8167,-94.4337,272.69,51,75,2.57,CA,1682318043
368,nome,64.5011,-165.4064,267.19,53,0,6.17,US,1682318043
369,touba,8.2833,-7.6833,295.4,92,35,1.46,CI,1682318044
370,san marcos,33.1434,-117.1661,288.15,87,100,2.06,US,1682318044
371,price,39.5994,-110.8107,280.74,49,0,2.57,US,1682318044
372,seydi,39.4816,62.9137,304.48,15,6,5.72,TM,1682318044
373,biri,12.6833,124.3636,301.28,76,84,6.34,PH,1682318045
374,mogadishu,2.0371,45.3438,303.08,79,75,2.57,SO,1682318045
375,teluknaga,-6.0989,106.6381,307.33,63,20,5.14,ID,1682318045
376,tsagan aman,47.5639,46.7218,286.29,72,100,6.65,RU,1682318045
377,pisco,-13.7,-76.2167,294.18,83,0,0.51,PE,1682318046
378,kyrylivka,46.3759,35.3675,285.32,72,100,2.77,UA,1682318046
379,tshikapa,-6.4167,20.8,296.75,89,100,1.62,CD,1682318046
380,christchurch,-43.5333,172.6333,284.21,62,15,3.09,NZ,1682317938
381,klaksvik,62.2266,-6.589,274.66,63,100,10.72,FO,1682318047
382,mahajanga,-15.7167,46.3167,305.16,66,20,2.57,MG,1682318047
383,surab,28.4914,66.2585,296.4,13,100,2.47,PK,1682318047
384,puerto escondido,15.85,-97.0667,299.62,83,32,2.74,MX,1682318048
385,riohacha,11.5444,-72.9072,297.46,83,9,1.93,CO,1682318048
386,karratha,-20.7377,116.8463,303.79,43,0,5.23,AU,1682317888
387,yarega,63.4354,53.5765,272.49,66,98,2.74,RU,1682318048
388,taoudenni,22.6783,-3.9836,300.58,20,0,3.3,ML,1682318049
389,safaga,26.7292,33.9365,299.34,41,0,5.72,EG,1682317982
390,ahipara,-35.1667,173.1667,289.28,54,82,7.82,NZ,1682318049
391,aden,12.7794,45.0367,301.79,72,9,6.16,YE,1682318049
392,walvis bay,-22.9575,14.5053,289.68,94,75,2.57,NA,1682318050
393,kitimat,54.0524,-128.6534,280.36,26,100,1.47,CA,1682318050
394,chapada dos guimaraes,-15.4606,-55.7497,292.96,93,75,1.56,BR,1682318050
395,ossora,59.2353,163.0719,273.52,94,100,3.39,RU,1682318050
396,norman wells,65.282,-126.8329,260.17,78,100,3.09,CA,1682318051
397,kolomyya,48.5306,25.0403,285.54,67,99,1.88,UA,1682318051
398,port blair,11.6667,92.75,304.23,62,10,5.68,IN,1682318016
399,amapa,1.0,-52.0,294.46,99,100,0.45,BR,1682318052
400,seguela,7.9611,-6.6731,295.44,82,72,0.88,CI,1682318052
401,yingkou,40.6648,122.2283,287.16,24,5,5.16,CN,1682317752
402,san patricio,28.017,-97.5169,291.08,85,100,5.76,US,1682318052
403,kerman,30.2832,57.0788,294.07,32,75,3.09,IR,1682318053
404,smidovich,48.6,133.8167,282.37,24,100,8.92,RU,1682318053
405,lida,53.8833,25.2997,287.81,55,2,5.94,BY,1682318054
406,kismayo,-0.3582,42.5454,303.45,66,77,3.62,SO,1682318054
407,todos santos,23.45,-110.2167,293.82,52,100,3.4,MX,1682318054
408,daru,-9.0763,143.2092,301.31,82,99,5.18,PG,1682318055
409,minbu,20.1833,94.8833,312.33,19,6,1.94,MM,1682318055
410,dhidhdhoo,6.8833,73.1,302.37,68,99,3.6,MV,1682317988
411,areia branca,-4.9561,-37.1369,297.38,84,100,4.76,BR,1682318055
412,awjilah,29.1081,21.2869,300.19,23,2,6.57,LY,1682318056
413,ullapool,57.8987,-5.1604,277.23,75,81,3.98,GB,1682318056
414,tanete,-3.9443,119.7848,306.25,48,15,3.65,ID,1682318056
415,esqueda,30.7167,-109.5833,288.11,20,0,2.94,MX,1682318056
416,santa cruz cabralia,-16.2781,-39.0247,295.28,94,100,2.57,BR,1682318057
417,gimli,50.6336,-96.9907,274.16,69,19,3.6,CA,1682318057
418,sungaipenuh,-2.0833,101.3833,297.46,84,99,0.35,ID,1682318058
419,nanortalik,60.1432,-45.2371,273.01,88,34,1.65,GL,1682318058
420,santa catalina,9.3337,122.8637,305.14,63,38,2.58,PH,1682318058
421,gat,31.61,34.7642,296.7,100,0,2.65,IL,1682318058
422,tabas,33.5959,56.9244,302.85,21,89,1.91,IR,1682318059
423,boende,-0.2167,20.8667,295.74,87,100,1.67,CD,1682318059
424,ayagoz,47.9714,80.4392,291.35,23,100,9.02,KZ,1682318059
425,myanaung,18.2833,95.3167,313.36,20,0,2.86,MM,1682318060
426,chumikan,54.7183,135.315,277.2,52,100,3.93,RU,1682318060
427,seoul,37.5683,126.9778,293.91,28,0,3.09,KR,1682317402
428,camana,-16.6228,-72.7111,293.94,88,35,2.78,PE,1682318060
429,sulangan,11.1373,123.7228,302.12,73,15,5.57,PH,1682318061
430,sisimiut,66.9395,-53.6735,272.13,96,100,2.8,GL,1682318061
431,prince george,53.9166,-122.753,278.85,99,100,2.06,CA,1682318061
432,dzerzhinsk,56.2389,43.4631,291.05,29,0,2.0,RU,1682318061
433,cabra,37.4725,-4.4421,288.94,44,9,0.46,ES,1682318062
434,lazaro cardenas,17.9583,-102.2,296.3,84,100,1.42,MX,1682318062
435,hirara,24.8,125.2833,299.3,69,40,3.6,JP,1682318019
436,itarema,-2.9248,-39.9167,296.31,89,92,3.84,BR,1682318062
437,ichnya,50.8626,32.3942,287.68,53,42,2.54,UA,1682318063
438,lokosovo,61.1333,74.8167,273.08,57,52,8.8,RU,1682318063
439,mount darwin,-16.7725,31.5838,297.32,44,56,2.12,ZW,1682318063
440,aranos,-24.1333,19.1167,286.88,67,100,9.73,NA,1682318064
441,santarem,-2.4431,-54.7083,296.22,100,75,1.03,BR,1682318064
442,shirokiy,49.758,129.523,283.14,18,6,7.51,RU,1682318065
443,berlevag,70.8578,29.0864,273.12,80,75,6.17,NO,1682318065
444,adrar,20.5022,-10.0711,296.19,24,0,3.5,MR,1682318065
445,lewistown,40.5992,-77.5714,276.97,87,0,0.0,US,1682318066
446,san jose,37.3394,-121.895,286.08,78,20,7.6,US,1682318049
447,wajima,37.4,136.9,287.53,22,75,2.57,JP,1682317800
448,usolye-sibirskoye,52.7519,103.6453,283.81,26,0,1.87,RU,1682318066
449,umri,26.5106,78.9367,308.29,14,0,2.66,IN,1682318067
450,bang rakam,16.7585,100.1174,310.35,41,20,2.06,TH,1682318067
451,kieta,-6.2167,155.6333,301.08,82,100,0.27,PG,1682318067
452,whitehorse,60.7161,-135.0538,277.58,81,100,3.09,CA,1682318067
453,thale,51.75,11.05,285.45,79,99,5.49,DE,1682318068
454,yuganets,56.2508,43.2307,291.09,41,64,3.92,RU,1682318068
455,boden,65.8252,21.6886,273.15,84,95,3.82,SE,1682318068
456,nikolayevka,53.1257,47.2041,290.16,37,1,3.85,RU,1682318068
457,vestmannaeyjar,63.4427,-20.2734,277.03,70,100,6.53,IS,1682318069
458,jinchang,38.4953,102.1739,282.26,33,100,8.97,CN,1682318042
459,baisha,26.5222,110.9311,283.21,94,100,1.48,CN,1682318070
460,sorel,46.0418,-73.1136,280.11,95,100,3.64,CA,1682318070
461,vagur,61.4732,-6.8119,275.84,61,100,10.51,FO,1682318070
462,whitianga,-36.8333,175.7,285.6,67,4,4.33,NZ,1682318071
463,lagos,6.5833,3.75,298.26,95,100,0.52,NG,1682317798
464,shenjiamen,29.9576,122.298,286.92,89,100,8.32,CN,1682318071
465,innisfail,-17.5333,146.0333,296.58,87,93,6.65,AU,1682318071
466,north bend,43.4065,-124.2243,283.1,93,100,3.6,US,1682318072
467,bari,41.1177,16.8512,291.97,69,0,2.57,IT,1682318073
468,beloha,-25.1667,45.05,298.75,58,31,6.48,MG,1682318073
469,wajir,1.7471,40.0573,302.13,84,75,0.51,KE,1682318073
470,martinsville,36.6915,-79.8725,282.53,63,40,2.06,US,1682317901
471,svetlyy,54.675,20.1347,283.18,82,78,3.22,RU,1682318074
472,petropavlovsk-kamchatskiy,53.0452,158.6483,276.48,56,75,5.0,RU,1682318074
473,laishevo,55.4046,49.5504,292.27,51,27,3.82,RU,1682318074
474,klyuchi,52.2667,79.1667,290.3,45,4,9.07,RU,1682318075
475,umm lajj,25.0213,37.2685,302.18,49,4,3.65,SA,1682318075
476,lensk,60.7253,114.9278,275.81,52,100,3.62,RU,1682318075
477,dehui,44.5333,125.7,289.21,9,99,6.27,CN,1682318076
478,lavrentiya,65.5833,-171.0,259.1,85,3,3.69,RU,1682318076
479,college,64.8569,-147.8028,264.33,55,75,8.75,US,1682318076
480,sabla,12.7525,4.7077,301.49,52,100,5.4,NG,1682318078
481,lakatoro,-16.0999,167.4164,300.22,79,97,3.78,VU,1682318078
482,oyama,36.3,139.8,290.46,16,100,2.78,JP,1682317926
483,greymouth,-42.4667,171.2,283.34,70,0,0.68,NZ,1682318079
484,olinda,-8.0089,-34.8553,298.0,88,100,1.54,BR,1682318079
485,dauriya,49.9333,116.8667,278.77,13,100,7.37,RU,1682318080
486,vangaindrano,-23.35,47.6,299.82,70,1,1.49,MG,1682318080
487,togur,58.3631,82.8265,281.28,80,100,4.96,RU,1682318081
488,nicoya,10.1483,-85.452,298.65,81,5,0.96,CR,1682318081
489,jieshou,33.2634,115.3611,285.97,67,100,4.17,CN,1682318082
490,beringovskiy,63.05,179.3167,269.84,87,100,6.18,RU,1682318082
491,inhambane,-23.865,35.3833,299.08,62,19,4.7,MZ,1682318082
492,sangar,63.9242,127.4739,273.94,66,100,6.33,RU,1682318083
493,fairmont,39.4851,-80.1426,276.8,78,98,1.54,US,1682318083
494,evensk,61.95,159.2333,275.03,85,100,11.83,RU,1682318083
495,constitucion,-35.3333,-72.4167,284.36,91,9,2.79,CL,1682318084
496,lisala,2.15,21.5167,298.07,72,100,1.06,CD,1682318084
497,hurghada,27.2574,33.8129,298.17,36,0,4.12,EG,1682317980
498,bilibino,68.0546,166.4372,270.01,77,0,2.6,RU,1682318085
499,talcahuano,-36.7167,-73.1167,284.97,94,100,1.54,CL,1682318086
500,kaeo,-35.1,173.7833,287.77,76,5,4.17,NZ,1682318086
501,aldan,58.6031,125.3894,270.69,67,100,6.68,RU,1682318086
502,sabzevar,36.2126,57.6819,299.75,22,0,8.23,IR,1682318087
503,yacuiba,-22.038,-63.6797,289.93,98,100,1.16,BO,1682318087
504,copiague,40.6815,-73.3998,283.68,76,75,3.58,US,1682318087
505,komsomolskiy,40.4272,71.7189,299.55,19,84,3.09,UZ,1682318088
506,popondetta,-8.7537,148.2534,302.06,71,85,1.6,PG,1682318088
507,pelym,61.0108,61.9978,277.56,28,93,5.22,RU,1682318088
508,drovyanaya,51.5833,113.0333,279.16,14,1,4.73,RU,1682318088
509,portland,45.5234,-122.6762,283.02,86,100,4.02,US,1682317860
510,fare,-16.7,-151.0167,300.48,79,53,3.72,PF,1682318089
511,gasa,31.5,34.4667,294.19,55,0,2.18,PS,1682318089
512,charters towers,-20.1,146.2667,299.11,51,85,3.31,AU,1682318089
513,bodden town,19.2833,-81.25,298.67,83,88,3.01,KY,1682318090
514,brooks,50.5834,-111.8851,279.28,61,100,5.14,CA,1682318090
515,port hardy,50.6996,-127.4199,280.25,87,75,1.03,CA,1682318000
516,general roca,-39.0333,-67.5833,289.61,54,0,4.84,AR,1682318091
517,buala,-8.145,159.5921,301.15,79,38,1.26,SB,1682318091
518,maroantsetra,-15.4333,49.7333,301.26,70,0,0.33,MG,1682318091
519,vaitape,-16.5167,-151.75,300.45,77,19,2.99,PF,1682317947
520,luancheng,37.8792,114.6517,284.24,75,100,2.76,CN,1682318092
521,morro bay,35.3658,-120.8499,288.02,90,2,1.34,US,1682318092
522,nelson bay,-32.7167,152.15,294.87,80,11,4.92,AU,1682317901
523,da nang,16.0678,108.2208,304.14,66,20,3.09,VN,1682317980
524,san miguelito,9.0333,-79.5,298.84,82,100,2.57,PA,1682318093
525,ayan,56.45,138.1667,276.82,57,87,6.78,RU,1682318094
526,coahuayana,18.7333,-103.6833,295.26,92,63,1.5,MX,1682318094
527,meulaboh,4.1363,96.1285,303.71,66,56,2.84,ID,1682318094
528,orange,33.7,-117.7675,289.68,86,100,2.06,US,1682317881
529,arsk,56.0915,49.8778,289.98,41,31,4.67,RU,1682317807
530,aykhal,66.0,111.5,270.98,74,100,1.84,RU,1682317945
531,waipawa,-41.4122,175.5153,281.17,72,76,6.39,NZ,1682318095
532,tessalit,20.1986,1.0114,300.15,16,0,2.16,ML,1682318095
533,yuli,9.6989,10.2744,302.98,56,86,4.18,NG,1682318096
534,druzhba,52.0428,33.9453,287.95,52,93,3.52,UA,1682318096
535,namatanai,-3.6667,152.4333,301.58,76,97,2.28,PG,1682318096
536,kemin,42.7846,75.6892,295.53,24,40,3.52,KG,1682318096
537,prince rupert,54.3161,-130.3201,279.98,92,100,7.72,CA,1682318097
538,jalu,29.0331,21.5482,299.92,24,1,7.63,LY,1682318097
539,saint-francois,46.4154,3.9054,281.86,87,0,3.6,FR,1682318097
540,otofuke,42.9917,143.2003,280.68,52,100,8.36,JP,1682318097
541,lieksa,63.3167,30.0167,276.99,95,100,3.94,FI,1682318098
542,boundiali,9.5217,-6.4869,296.53,78,48,1.8,CI,1682318098
543,impfondo,1.6381,18.0667,296.01,88,99,0.54,CG,1682318098
544,honiara,-9.4333,159.95,300.46,85,29,0.27,SB,1682318050
545,teahupoo,-17.8333,-149.2667,296.13,83,92,5.32,PF,1682318099
546,san carlos de bariloche,-41.1456,-71.3082,279.51,56,0,1.54,AR,1682317801
547,sao paulo de olivenca,-3.3783,-68.8725,295.66,99,97,0.78,BR,1682318099
548,freeport,40.6576,-73.5832,283.69,71,75,5.66,US,1682318099
549,hamilton,39.1834,-84.5333,276.91,83,75,0.0,US,1682317802
550,jelgava,56.65,23.7128,287.17,64,92,4.13,LV,1682318100
551,troutdale,45.5393,-122.3873,282.67,85,100,4.92,US,1682318100
552,tazovskiy,67.4667,78.7,273.38,99,100,10.77,RU,1682318100
553,stephenville,32.2207,-98.2023,281.22,94,40,0.0,US,1682318101
554,vila velha,-20.3297,-40.2925,294.79,93,75,1.54,BR,1682317988
555,opuwo,-18.0607,13.84,296.0,52,3,0.91,NA,1682317823
556,hasaki,35.7333,140.8333,290.53,43,100,4.22,JP,1682317926
557,riyadh,24.6877,46.7219,302.23,26,5,3.94,SA,1682317972
558,indianola,41.3581,-93.5574,277.04,60,100,0.89,US,1682318104
559,teguise,29.0605,-13.564,289.27,77,20,6.69,ES,1682318105
560,baherden,38.4362,57.4316,300.98,23,100,3.31,TM,1682318105
561,akcakoca,41.0866,31.1162,285.34,70,0,0.96,TR,1682318105
562,carnduff,49.1667,-101.8009,270.03,93,21,2.73,CA,1682318105
563,los llanos de aridane,28.6585,-17.9182,289.01,85,75,4.12,ES,1682318060
564,rockport,28.0206,-97.0544,290.93,88,100,6.69,US,1682318106
565,allende,25.2833,-100.0167,288.7,93,100,1.36,MX,1682318106
566,goba,7.0167,39.9833,290.93,57,98,2.66,ET,1682318107
567,guaratuba,-25.8828,-48.5747,292.33,88,69,1.98,BR,1682318107
568,chumphon,10.3333,98.8333,309.05,33,69,3.89,TH,1682318107
569,concepcion,-36.827,-73.0498,285.04,94,100,1.54,CL,1682318107
570,pulandian,39.3953,121.9669,291.58,11,14,2.53,CN,1682318108
571,ocean city,39.2776,-74.5746,282.59,58,6,2.68,US,1682318108
572,tamala,52.541,43.2515,288.02,54,8,3.62,RU,1682318108
573,qasigiannguit,68.8193,-51.1922,273.29,99,100,1.69,GL,1682318109
574,novo aripuana,-5.1206,-60.3797,295.31,96,100,0.16,BR,1682318109
575,jacareacanga,-6.2222,-57.7528,294.82,98,100,0.37,BR,1682318109
576,aswan,24.0934,32.907,302.76,23,0,5.66,EG,1682318109
577,sechura,-5.5569,-80.8222,299.46,75,100,4.62,PE,1682318110
578,leshukonskoye,64.8989,45.7622,272.75,85,100,2.44,RU,1682318110
579,zbarazh,49.6636,25.7762,285.69,63,5,6.29,UA,1682318110
580,debre birhan,9.6833,39.5333,290.82,49,7,2.6,ET,1682318110
581,mecca,21.4267,39.8261,305.12,44,27,1.65,SA,1682317951
582,avera,33.194,-82.5271,288.88,54,100,2.96,US,1682318111
583,fairbanks,64.8378,-147.7164,264.34,55,75,8.75,US,1682318111
584,kudahuvadhoo,2.6708,72.8944,302.6,69,100,3.13,MV,1682318111
585,kolomak,49.8399,35.3044,287.04,67,22,3.55,UA,1682318112
586,florence,43.7667,11.25,290.01,82,75,4.02,IT,1682318112
587,davenda,53.5556,119.317,273.23,72,100,5.06,RU,1682318112
588,mnogovershinnyy,53.9353,139.9242,272.78,77,22,4.75,RU,1682318112
589,novopokrovka,49.8425,36.5477,286.9,61,12,3.44,UA,1682318113
590,lapeer,43.0514,-83.3188,276.45,77,75,0.0,US,1682318113
591,ranong,9.9658,98.6348,307.11,52,98,1.27,TH,1682318113
592,jasper,37.2001,-94.3502,280.18,52,0,3.09,US,1682318113
593,baglan,36.1307,68.7083,302.48,14,32,2.26,AF,1682318114
594,mugla,37.2303,28.3557,286.67,53,0,2.09,TR,1682318114
595,adamov,49.3016,16.6525,287.96,68,0,4.12,CZ,1682318114
596,san-pedro,4.7485,-6.6363,299.81,87,100,2.27,CI,1682318115
597,hwange,-18.3693,26.5019,300.37,35,61,2.66,ZW,1682318115
598,vagay,57.9375,69.0217,277.72,38,6,6.65,RU,1682318115
599,massakory,12.996,15.7293,305.95,24,99,0.61,TD,1682318116
600,pagudpud,18.5616,120.7868,303.23,60,37,7.35,PH,1682318116
601,cururupu,-1.8283,-44.8683,296.44,96,100,0.62,BR,1682318116
602,bretzfeld,49.1794,9.4383,283.99,86,100,5.35,DE,1682318117
603,melilla,35.2937,-2.9383,287.36,77,0,0.51,ES,1682318117
604,ozernovskiy,51.5,156.5167,272.78,94,100,10.23,RU,1682318118
605,isilkul,54.9109,71.2728,283.83,62,82,9.77,RU,1682318118
